Unnamed: 0,상가업소번호,brand,상호명,지점명,상권업종대분류코드,상권업종대분류명,상권업종중분류코드,상권업종중분류명,상권업종소분류코드,상권업종소분류명,표준산업분류코드,표준산업분류명,시도코드,시도명,시군구코드,시군구명,행정동코드,행정동명,법정동코드,법정동명,지번코드,지번본번지,지번부번지,지번주소,도로명코드,도로명,도로명주소,층정보,경도,위도,place_id,월간 검색량,블로그누적발행
9478,MA010120220803665593,투다리,투다리,,I2,음식,I211,주점,I21104,요리 주점,I56219,기타 주점업,11,서울특별시,11170,용산구,11170625,한강로동,1117012400,한강로1가,1117012400100500001,50.0,1.0,서울특별시 용산구 한강로1가 50-1,111702005005,서울특별시 용산구 한강대로,서울특별시 용산구 한강대로 205,,126.972618947165,37.5365854582617,11763577,20.0,45.0
9479,MA010120220803650891,투다리,투다리,,I2,음식,I211,주점,I21104,요리 주점,I56219,기타 주점업,11,서울특별시,11230,동대문구,11230740,이문1동,1123011000,이문동,1123011000103050006,305.0,6.0,서울특별시 동대문구 이문동 305-6,112304115730,서울특별시 동대문구 휘경로2길,서울특별시 동대문구 휘경로2길 13,2.0,127.060942455673,37.5954079399908,38623490,20.0,97.0
9480,MA010120220804077811,투다리,투다리,,I2,음식,I211,주점,I21104,요리 주점,I56219,기타 주점업,11,서울특별시,11215,광진구,11215830,자양2동,1121510500,자양동,1121510500106010003,601.0,3.0,서울특별시 광진구 자양동 601-3,112153104011,서울특별시 광진구 자양번영로,서울특별시 광진구 자양번영로 30,1.0,127.07572348291,37.5322755917414,38008590,70.0,261.03000000000003
9482,MA010120220809830428,투다리,투다리,,I2,음식,I211,주점,I21104,요리 주점,I56219,기타 주점업,11,서울특별시,11710,송파구,11710650,잠실본동,1171010100,잠실동,1171010100101940000,194.0,,서울특별시 송파구 잠실동 194,117104169446,서울특별시 송파구 올림픽로8길,서울특별시 송파구 올림픽로8길 20,1.0,127.080089435822,37.5099999257596,1978859905,20.0,72.0
9484,MA010120220800691151,투다리,투다리,,I2,음식,I211,주점,I21104,요리 주점,I56219,기타 주점업,11,서울특별시,11620,관악구,11620695,신림동,1162010200,신림동,1162010200114230028,1423.0,28.0,서울특별시 관악구 신림동 1423-28,116204160397,서울특별시 관악구 봉천로12길,서울특별시 관악구 봉천로12길 69,,126.930304828047,37.4857243968046,1854604083,20.0,201.0
9486,MA010120220803809934,투다리,투다리뚝섬점,,I2,음식,I211,주점,I21104,요리 주점,I56219,기타 주점업,11,서울특별시,11200,성동구,11200670,성수2가1동,1120011500,성수동2가,1120011500103390090,339.0,90.0,서울특별시 성동구 성수동2가 339-90,112003103003,서울특별시 성동구 성수이로,서울특별시 성동구 성수이로 32-24,1.0,127.054728910895,37.5376121011851,20937688,20.0,81.0
9487,MA0101202209A0101327,투다리,투다리,,I2,음식,I211,주점,I21104,요리 주점,I56219,기타 주점업,11,서울특별시,11305,강북구,11305635,수유3동,1130510300,수유동,1130510300101920003,192.0,3.0,서울특별시 강북구 수유동 192-3,113054124572,서울특별시 강북구 한천로139나길,서울특별시 강북구 한천로139나길 1,1.0,127.025277237546,37.6390378038175,20936897,20.0,63.0
9490,MA010120220813091515,투다리,투다리석촌,본점,I2,음식,I211,주점,I21104,요리 주점,I56219,기타 주점업,11,서울특별시,11710,송파구,11710600,석촌동,1171010500,석촌동,1171010500101720006,172.0,6.0,서울특별시 송파구 석촌동 172-6,117104169191,서울특별시 송파구 백제고분로39길,서울특별시 송파구 백제고분로39길 5,1.0,127.104988141193,37.5050429145468,37891045,20.0,97.0
9492,MA010120220810085237,투다리,투다리,,I2,음식,I211,주점,I21104,요리 주점,I56219,기타 주점업,11,서울특별시,11470,양천구,11470590,신월4동,1147010300,신월동,1147010300105380003,538.0,3.0,서울특별시 양천구 신월동 538-3,114704142242,서울특별시 양천구 신월로15길,서울특별시 양천구 신월로15길 11,1.0,126.841633526753,37.5194355071617,1539960565,20.0,120.0
9493,MA010120220804081953,투다리,투다리,,I2,음식,I211,주점,I21104,요리 주점,I56219,기타 주점업,11,서울특별시,11740,강동구,11740525,상일1동,1174010300,상일동,1174010300102840001,284.0,1.0,서울특별시 강동구 상일동 284-1,117404172156,서울특별시 강동구 상일로5길,서울특별시 강동구 상일로5길 15,,127.172144096676,37.548860905192,1105083671,30.0,78.99
9495,MA010120220800971714,투다리,투다리,,I2,음식,I211,주점,I21104,요리 주점,I56219,기타 주점업,11,서울특별시,11620,관악구,11620630,남현동,1162010300,남현동,1162010300106020254,602.0,254.0,서울특별시 관악구 남현동 602-254,116204160482,서울특별시 관악구 승방길,서울특별시 관악구 승방길 7,,126.981425877454,37.4737420505284,1425450357,20.0,30.0
9496,MA010120220810193366,투다리,투다리,봉천점,I2,음식,I211,주점,I21104,요리 주점,I56219,기타 주점업,11,서울특별시,11620,관악구,11620615,중앙동,1162010100,봉천동,1162010100108920030,892.0,30.0,서울특별시 관악구 봉천동 892-30,116203005080,서울특별시 관악구 양녕로,서울특별시 관악구 양녕로 14,1.0,126.946678866841,37.4832191077177,1992660845,20.0,138.0
9497,MA010120220812569967,투다리,투다리,,I2,음식,I211,주점,I21104,요리 주점,I56219,기타 주점업,11,서울특별시,11710,송파구,11710650,잠실본동,1171010100,잠실동,1171010100102360016,236.0,16.0,서울특별시 송파구 잠실동 236-16,117104169171,서울특별시 송파구 백제고분로19길,서울특별시 송파구 백제고분로19길 11,1.0,127.086769171392,37.5058956367534,11762475,20.0,72.0
9502,MA010120220800435368,투다리,투다리,,I2,음식,I211,주점,I21104,요리 주점,I56219,기타 주점업,11,서울특별시,11560,영등포구,11560710,대림2동,1156013300,대림동,1156013300111160001,1116.0,1.0,서울특별시 영등포구 대림동 1116-1,115603116010,서울특별시 영등포구 도림로,서울특별시 영등포구 도림로 124,,126.896216998771,37.4923127655428,11762396,20.0,89.0
9503,MA010120220804260519,투다리,투다리,,I2,음식,I211,주점,I21104,요리 주점,I56219,기타 주점업,11,서울특별시,11710,송파구,11710632,가락2동,1171010700,가락동,1171010700101430002,143.0,2.0,서울특별시 송파구 가락동 143-2,117104169464,서울특별시 송파구 중대로16길,서울특별시 송파구 중대로16길 10,1.0,127.125692525266,37.4960847243086,1097653409,30.0,174.99
9505,MA010120220800888783,투다리,투다리,법원점,I2,음식,I211,주점,I21104,요리 주점,I56219,기타 주점업,11,서울특별시,11470,양천구,11470620,신정1동,1147010100,신정동,1147010100110200017,1020.0,17.0,서울특별시 양천구 신정동 1020-17,114703114012,서울특별시 양천구 은행정로,서울특별시 양천구 은행정로 10,1.0,126.86004706075,37.520621054175,9470101,20.0,171.0
9506,MA010120220804234178,투다리,투다리,,I2,음식,I211,주점,I21104,요리 주점,I56219,기타 주점업,11,서울특별시,11710,송파구,11710540,마천1동,1171011400,마천동,1171011400101280111,128.0,111.0,서울특별시 송파구 마천동 128-111,117104169112,서울특별시 송파구 마천로51길,서울특별시 송파구 마천로51길 5,1.0,127.150649517205,37.4958032533408,11762530,60.0,88.98
9507,MA010120220803654939,투다리,투다리,,I2,음식,I211,주점,I21104,요리 주점,I56219,기타 주점업,11,서울특별시,11230,동대문구,11230650,장안1동,1123010600,장안동,1123010600101620004,162.0,4.0,서울특별시 동대문구 장안동 162-4,112304115612,서울특별시 동대문구 한천로24길,서울특별시 동대문구 한천로24길 6,,127.065472750982,37.5706281988484,11763318,60.0,162.0
9508,MA010120220807153687,투다리,투다리,,I2,음식,I211,주점,I21104,요리 주점,I56199,간이 음식 포장 판매 전문점,11,서울특별시,11710,송파구,11710642,문정2동,1171010800,문정동,1171010800106440002,644.0,2.0,서울특별시 송파구 문정동 644-2,117104853405,서울특별시 송파구 법원로11길,서울특별시 송파구 법원로11길 7,1.0,127.119410502798,37.4852881667069,1499542160,40.0,234.0
9509,MA010120220800586683,투다리,투다리,,I2,음식,I211,주점,I21104,요리 주점,I56219,기타 주점업,11,서울특별시,11410,서대문구,11410685,홍은2동,1141011800,홍은동,1141011800104010013,401.0,13.0,서울특별시 서대문구 홍은동 401-13,114104136080,서울특별시 서대문구 명지대길,서울특별시 서대문구 명지대길 18,,126.925064737345,37.5812272748691,1633955223,30.0,69.99000000000001
9511,MA010120220804332165,투다리,투다리,,I2,음식,I211,주점,I21104,요리 주점,I56219,기타 주점업,11,서울특별시,11260,중랑구,11260570,면목7동,1126010100,면목동,1126010100106170007,617.0,7.0,서울특별시 중랑구 면목동 617-7,112603005027,서울특별시 중랑구 면목로,서울특별시 중랑구 면목로 314,,127.088213475501,37.5798756186423,1965537486,40.0,179.0
9512,MA010120220806451268,투다리,투다리꼬치구이,,I2,음식,I211,주점,I21104,요리 주점,I56219,기타 주점업,11,서울특별시,11170,용산구,11170555,청파동,1117010800,서계동,1117010800100230000,23.0,,서울특별시 용산구 서계동 23,111704106392,서울특별시 용산구 청파로89길,서울특별시 용산구 청파로89길 41,1.0,126.966739377852,37.5531353044327,38623512,20.0,18.0
9514,MA010120220803898068,투다리,투다리,,I2,음식,I211,주점,I21104,요리 주점,I56219,기타 주점업,11,서울특별시,11290,성북구,11290575,동선동,1129011600,동선동1가,1129011600100620000,62.0,,서울특별시 성북구 동선동1가 62,112904121093,서울특별시 성북구 동소문로20길,서울특별시 성북구 동소문로20길 37-22,,127.017878583017,37.5910525087236,38623464,20.0,22.0
9515,MA010120220810026033,투다리,투다리상수점,,I2,음식,I211,주점,I21104,요리 주점,I56219,기타 주점업,11,서울특별시,11440,마포구,11440655,서강동,1144011500,상수동,1144011500103290007,329.0,7.0,서울특별시 마포구 상수동 329-7,114403113017,서울특별시 마포구 와우산로,서울특별시 마포구 와우산로 30,1.0,126.92317512006,37.547159397769,1691576731,20.0,115.0
9518,MA010120220806897814,투다리,투다리삼전,사거리점,I2,음식,I211,주점,I21104,요리 주점,I56219,기타 주점업,11,서울특별시,11710,송파구,11710610,삼전동,1171010600,삼전동,1171010600100280012,28.0,12.0,서울특별시 송파구 삼전동 28-12,117104169174,서울특별시 송파구 백제고분로22길,서울특별시 송파구 백제고분로22길 4,1.0,127.08918671137,37.5035692430189,1713986112,30.0,104.01
9520,MA010120220801023525,투다리,투다리,,I2,음식,I211,주점,I21104,요리 주점,I56219,기타 주점업,11,서울특별시,11680,강남구,11680670,개포2동,1168010300,개포동,1168010300101860012,186.0,12.0,서울특별시 강남구 개포동 186-12,116804166068,서울특별시 강남구 개포로82길,서울특별시 강남구 개포로82길 7,,127.06733476752,37.4887531522089,11762167,40.0,147.0
9521,MA010120220800504722,투다리,투다리,,I2,음식,I211,주점,I21104,요리 주점,I56219,기타 주점업,11,서울특별시,11500,강서구,11500604,가양2동,1150010400,가양동,1150010400114800001,1480.0,1.0,서울특별시 강서구 가양동 1480-1,115004145413,서울특별시 강서구 양천로57길,서울특별시 강서구 양천로57길 10-11,,126.852938725956,37.5631665976334,9500104,20.0,113.0
9524,MA010120220806653143,투다리,투다리,,I2,음식,I211,주점,I21104,요리 주점,I56219,기타 주점업,11,서울특별시,11560,영등포구,11560515,영등포본동,1156010100,영등포동,1156010100106180283,618.0,283.0,서울특별시 영등포구 영등포동 618-283,115604154761,서울특별시 영등포구 영신로19길,서울특별시 영등포구 영신로19길 30-3,,126.904761352345,37.5135386385476,11763100,20.0,76.0
9526,MA010120220803962823,투다리,투다리,,I2,음식,I211,주점,I21104,요리 주점,I56219,기타 주점업,11,서울특별시,11740,강동구,11740685,길동,1174010500,길동,1174010500103920002,392.0,2.0,서울특별시 강동구 길동 392-2,117404172235,서울특별시 강동구 양재대로116길,서울특별시 강동구 양재대로116길 20,,127.141434373602,37.5383599972188,11762307,60.0,361.98
9527,MA010120220803963052,투다리,투다리,,I2,음식,I211,주점,I21104,요리 주점,I56219,기타 주점업,11,서울특별시,11305,강북구,11305660,인수동,1130510300,수유동,1130510300106050374,605.0,374.0,서울특별시 강북구 수유동 605-374,113053108001,서울특별시 강북구 삼각산로,서울특별시 강북구 삼각산로 110,1.0,127.016349544776,37.640634121713,20936897,20.0,63.0
9531,MA010120220807825596,투다리,투다리,,I2,음식,I211,주점,I21104,요리 주점,I56219,기타 주점업,11,서울특별시,11680,강남구,11680521,논현1동,1168010800,논현동,1168010800101380023,138.0,23.0,서울특별시 강남구 논현동 138-23,116804166012,서울특별시 강남구 강남대로124길,서울특별시 강남구 강남대로124길 45,1.0,127.025821756766,37.5098620738592,38623517,40.0,471.0
9534,MA010120220803148742,투다리,투다리오금역점,,I2,음식,I211,주점,I21104,요리 주점,I56219,기타 주점업,11,서울특별시,11710,송파구,11710620,가락본동,1171010700,가락동,1171010700100080001,8.0,1.0,서울특별시 송파구 가락동 8-1,117104169468,서울특별시 송파구 중대로23길,서울특별시 송파구 중대로23길 20,1.0,127.12580528919,37.5026349153963,1097653409,30.0,174.99
9535,MA010120220800731056,투다리,투다리,,I2,음식,I211,주점,I21104,요리 주점,I56219,기타 주점업,11,서울특별시,11260,중랑구,11260690,신내2동,1126010600,신내동,1126010600106480000,648.0,,서울특별시 중랑구 신내동 648,112603106007,서울특별시 중랑구 신내로,서울특별시 중랑구 신내로 225,,127.091360778687,37.6169670149357,33913614,20.0,88.0
9536,MA010120220800260331,투다리,투다리,,I2,음식,I211,주점,I21104,요리 주점,I56219,기타 주점업,11,서울특별시,11170,용산구,11170555,청파동,1117011100,청파동3가,1117011100100550003,55.0,3.0,서울특별시 용산구 청파동3가 55-3,111703101023,서울특별시 용산구 청파로,서울특별시 용산구 청파로 271,,126.970545554343,37.5438109788992,38623512,20.0,14.0
9544,MA010120220803903029,투다리,투다리,,I2,음식,I211,주점,I21104,요리 주점,I56219,기타 주점업,11,서울특별시,11290,성북구,11290630,정릉2동,1129013300,정릉동,1129013300104110038,411.0,38.0,서울특별시 성북구 정릉동 411-38,112903107004,서울특별시 성북구 보국문로,서울특별시 성북구 보국문로 28,1.0,127.010826834704,37.6069918965221,20087273,20.0,26.0
9546,MA010120220803830069,투다리,투다리대치,본점,I2,음식,I211,주점,I21104,요리 주점,I56219,기타 주점업,11,서울특별시,11680,강남구,11680600,대치1동,1168010600,대치동,1168010600110190013,1019.0,13.0,서울특별시 강남구 대치동 1019-13,116803122005,서울특별시 강남구 삼성로,서울특별시 강남구 삼성로 231,1.0,127.060987457412,37.4978207298529,1330905621,100.0,485.0
9547,MA010120220800216713,투다리,투다리서강점,,I2,음식,I211,주점,I21104,요리 주점,I56219,기타 주점업,11,서울특별시,11440,마포구,11440600,대흥동,1144011000,노고산동,1144011000100310110,31.0,110.0,서울특별시 마포구 노고산동 31-110,114404139012,서울특별시 마포구 고산길,서울특별시 마포구 고산길 16,,126.938107116737,37.5534841665793,38623510,20.0,19.0
9550,MA0101202503A0026543,투다리,투다리한영점,,I2,음식,I211,주점,I21104,요리 주점,I56193,치킨 전문점,11,서울특별시,11740,강동구,11740540,명일2동,1174010100,명일동,1174010100102490004,249.0,4.0,서울특별시 강동구 명일동 249-4,117403016054,서울특별시 강동구 구천면로,서울특별시 강동구 구천면로 496,1.0,127.153381917666,37.5490038970844,1035238447,20.0,71.0
9556,MA010120220804014665,투다리,투다리,,I2,음식,I211,주점,I21104,요리 주점,I56219,기타 주점업,11,서울특별시,11710,송파구,11710570,오금동,1171011200,오금동,1171011200100170011,17.0,11.0,서울특별시 송파구 오금동 17-11,117104169452,서울특별시 송파구 위례성대로20길,서울특별시 송파구 위례성대로20길 32,1.0,127.126957967723,37.5087965541681,31116238,20.0,60.0
9557,MA010120220800558717,투다리,투다리,,I2,음식,I211,주점,I21104,요리 주점,I56219,기타 주점업,11,서울특별시,11410,서대문구,11410720,북가좌2동,1141011900,북가좌동,1141011900101030002,103.0,2.0,서울특별시 서대문구 북가좌동 103-2,114103112003,서울특별시 서대문구 거북골로,서울특별시 서대문구 거북골로 152,,126.912968902312,37.575587765007,38623514,20.0,31.0
9558,MA010120220804256872,투다리,투다리,,I2,음식,I211,주점,I21104,요리 주점,I56219,기타 주점업,11,서울특별시,11710,송파구,11710600,석촌동,1171010500,석촌동,1171010500100210006,21.0,6.0,서울특별시 송파구 석촌동 21-6,117104169183,서울특별시 송파구 백제고분로33길,서울특별시 송파구 백제고분로33길 26,,127.098926032198,37.5049670563805,37891045,20.0,97.0
9561,MA010120220800426445,투다리,투다리,,I2,음식,I211,주점,I21104,요리 주점,I56219,기타 주점업,11,서울특별시,11590,동작구,11590560,상도4동,1159010200,상도동,1159010200101880031,188.0,31.0,서울특별시 동작구 상도동 188-31,115903119005,서울특별시 동작구 상도로,서울특별시 동작구 상도로 150,,126.936090624375,37.5028558084087,86732604,20.0,107.0
9566,MA0101202503A0060622,투다리,투다리,연신내점,I2,음식,I211,주점,I21104,요리 주점,I56111,한식 일반 음식점업,11,서울특별시,11380,은평구,11380570,대조동,1138010600,대조동,1138010600101970016,197.0,16.0,서울특별시 은평구 대조동 197-16,113804133157,서울특별시 은평구 연서로26길,서울특별시 은평구 연서로26길 3-8,1.0,126.920452342289,37.6175071523128,1772298298,20.0,51.0
9569,MA010120220800727033,투다리,투다리구로역점,,I2,음식,I211,주점,I21104,요리 주점,I56219,기타 주점업,11,서울특별시,11530,구로구,11530560,구로5동,1153010200,구로동,1153010200105700115,570.0,115.0,서울특별시 구로구 구로동 570-115,115303116007,서울특별시 구로구 새말로,서울특별시 구로구 새말로 18-31,2.0,126.883300057598,37.501788306418,11763037,20.0,129.0
9572,MA0101202409A0184927,투다리,투다리개롱역점,,I2,음식,I211,주점,I21104,요리 주점,I56111,한식 일반 음식점업,11,서울특별시,11710,송파구,11710632,가락2동,1171010700,가락동,1171010700101690000,169.0,,서울특별시 송파구 가락동 169,117104169402,서울특별시 송파구 오금로44나길,서울특별시 송파구 오금로44나길 17,1.0,127.135306549989,37.4971463013303,33920106,30.0,174.99
9574,MA0101202409A0229826,투다리,투다리망원한강공원점,,I2,음식,I211,주점,I21104,요리 주점,I56111,한식 일반 음식점업,11,서울특별시,11440,마포구,11440700,망원2동,1144012300,망원동,1144012300104530007,453.0,7.0,서울특별시 마포구 망원동 453-7,114403113008,서울특별시 마포구 방울내로,서울특별시 마포구 방울내로 1,1.0,126.89853900939,37.5562498875747,1184932894,40.0,1046.0
9578,MA010120220804088270,투다리,투다리,,I2,음식,I211,주점,I21104,요리 주점,I56219,기타 주점업,11,서울특별시,11740,강동구,11740610,천호2동,1174010900,천호동,1174010900102890063,289.0,63.0,서울특별시 강동구 천호동 289-63,117403124003,서울특별시 강동구 상암로,서울특별시 강동구 상암로 68-1,,127.130680685724,37.5486437740383,11763033,20.0,177.0
9579,MA010120220804008108,투다리,투다리,,I2,음식,I211,주점,I21104,요리 주점,I56219,기타 주점업,11,서울특별시,11680,강남구,11680531,논현2동,1168010800,논현동,1168010800102320001,232.0,1.0,서울특별시 강남구 논현동 232-1,116804166564,서울특별시 강남구 언주로113길,서울특별시 강남구 언주로113길 19,,127.035718003797,37.5090305716981,38623517,40.0,471.0
9581,MA010120220804086363,투다리,투다리,길동점,I2,음식,I211,주점,I21104,요리 주점,I56219,기타 주점업,11,서울특별시,11740,강동구,11740685,길동,1174010500,길동,1174010500101240006,124.0,6.0,서울특별시 강동구 길동 124-6,117404172396,서울특별시 강동구 천호대로197길,서울특별시 강동구 천호대로197길 33,,127.146637343565,37.5374346315802,11762307,60.0,361.98
9582,MA0101202406A0364631,투다리,투다리연신내,로데오점,I2,음식,I211,주점,I21104,요리 주점,I56111,한식 일반 음식점업,11,서울특별시,11380,은평구,11380551,갈현1동,1138010400,갈현동,1138010400104310017,431.0,17.0,서울특별시 은평구 갈현동 431-17,113804133160,서울특별시 은평구 연서로29길,서울특별시 은평구 연서로29길 22-9,1.0,126.917652107514,37.6198027501678,1238968636,20.0,103.0
9585,MA0101202406A0070411,투다리,투다리,고덕점,I2,음식,I211,주점,I21104,요리 주점,I56213,생맥주 전문점,11,서울특별시,11740,강동구,11740550,고덕1동,1174010200,고덕동,1174010200106500004,650.0,4.0,서울특별시 강동구 고덕동 650-4,117404172031,서울특별시 강동구 고덕로61길,서울특별시 강동구 고덕로61길 106,1.0,127.151660327902,37.559430656285,1105083671,30.0,89.01
9586,MA0101202504A0024975,투다리,투다리신촌,1호점,I2,음식,I211,주점,I21104,요리 주점,I56111,한식 일반 음식점업,11,서울특별시,11410,서대문구,11410585,신촌동,1141011600,창천동,1141011600100570025,57.0,25.0,서울특별시 서대문구 창천동 57-25,114104136242,서울특별시 서대문구 연세로5나길,서울특별시 서대문구 연세로5나길 10,1.0,126.935682197736,37.5570598307477,1511895794,20.0,222.0
9588,MA0101202409A0066325,투다리,투다리한우물점,,I2,음식,I211,주점,I21104,요리 주점,I56111,한식 일반 음식점업,11,서울특별시,11740,강동구,11740560,고덕2동,1174010200,고덕동,1174010200102530003,253.0,3.0,서울특별시 강동구 고덕동 253-3,117404172202,서울특별시 강동구 아리수로74길,서울특별시 강동구 아리수로74길 35-33,1.0,127.162709708227,37.5608485297522,11763592,30.0,89.01
9589,MA0101202409A0093090,투다리,투다리시흥,사거리점,I2,음식,I211,주점,I21104,요리 주점,I56111,한식 일반 음식점업,11,서울특별시,11545,금천구,11545670,시흥1동,1154510300,시흥동,1154510300108880006,888.0,6.0,서울특별시 금천구 시흥동 888-6,115454151317,서울특별시 금천구 시흥대로52길,서울특별시 금천구 시흥대로52길 38,1.0,126.902261244865,37.4530699268896,1382584954,20.0,85.0
9591,MA0101202409A0113479,투다리,투다리역말,사거리점,I2,음식,I211,주점,I21104,요리 주점,I56111,한식 일반 음식점업,11,서울특별시,11380,은평구,11380625,역촌동,1138010800,역촌동,1138010800100450043,45.0,43.0,서울특별시 은평구 역촌동 45-43,113803111006,서울특별시 은평구 연서로,서울특별시 은평구 연서로 81,1.0,126.915050836453,37.6063671666303,1518353807,30.0,96.0
9594,MA010120220800689384,투다리,투다리,,I2,음식,I211,주점,I21104,요리 주점,I56219,기타 주점업,11,서울특별시,11200,성동구,11200690,성수2가3동,1120011500,성수동2가,1120011500102890251,289.0,251.0,서울특별시 성동구 성수동2가 289-251,112004109397,서울특별시 성동구 아차산로7길,서울특별시 성동구 아차산로7길 10-1,2.0,127.05462196263,37.5461085770929,11762846,20.0,81.0
9596,MA010120220809367531,투다리,투다리,이대점,I2,음식,I211,주점,I21104,요리 주점,I56219,기타 주점업,11,서울특별시,11410,서대문구,11410585,신촌동,1141011200,대현동,1141011200101040036,104.0,36.0,서울특별시 서대문구 대현동 104-36,114103005057,서울특별시 서대문구 신촌로,서울특별시 서대문구 신촌로 149,1.0,126.942495529372,37.5568651262505,1511895794,20.0,48.0
9597,MA010120220806478644,투다리,투다리수서점,,I2,음식,I211,주점,I21104,요리 주점,I56219,기타 주점업,11,서울특별시,11680,강남구,11680750,수서동,1168011500,수서동,1168011500107140000,714.0,,서울특별시 강남구 수서동 714,116804166081,서울특별시 강남구 광평로51길,서울특별시 강남구 광평로51길 8,,127.102488521688,37.488367483961,9680115,20.0,30.0
9605,MA0101202310A0026940,투다리,투다리역촌역점,,I2,음식,I211,주점,I21104,요리 주점,I56219,기타 주점업,11,서울특별시,11380,은평구,11380570,대조동,1138010600,대조동,1138010600101790051,179.0,51.0,서울특별시 은평구 대조동 179-51,113804133269,서울특별시 은평구 진흥로11길,서울특별시 은평구 진흥로11길 1-9,1.0,126.922785286018,37.6069040643164,1055293027,20.0,51.0
9606,MA0101202406A0203368,투다리,투다리광흥창점,,I2,음식,I211,주점,I21104,요리 주점,I56122,일식 음식점업,11,서울특별시,11440,마포구,11440630,신수동,1144011300,구수동,1144011300100570010,57.0,10.0,서울특별시 마포구 구수동 57-10,114403113021,서울특별시 마포구 창전로,서울특별시 마포구 창전로 42,1.0,126.93234208476,37.5461198474119,1362191069,20.0,10.0
9608,MA0101202406A0481790,투다리,투다리,로데오점,I2,음식,I211,주점,I21104,요리 주점,I56219,기타 주점업,11,서울특별시,11470,양천구,11470650,신정4동,1147010100,신정동,1147010100109110004,911.0,4.0,서울특별시 양천구 신정동 911-4,114703114011,서울특별시 양천구 신정중앙로,서울특별시 양천구 신정중앙로 58,1.0,126.85799899156,37.5268985919318,39168395,20.0,171.0
9609,MA0101202406A0334324,투다리,투다리,,I2,음식,I211,주점,I21104,요리 주점,I56111,한식 일반 음식점업,11,서울특별시,11680,강남구,11680510,신사동,1168010700,신사동,1168010700105690026,569.0,26.0,서울특별시 강남구 신사동 569-26,116804166153,서울특별시 강남구 논현로161길,서울특별시 강남구 논현로161길 14,1.0,127.027059553307,37.5235930907637,1648301419,20.0,355.0
9611,MA0101202406A0377988,투다리,투다리,용강점,I2,음식,I211,주점,I21104,요리 주점,I56111,한식 일반 음식점업,11,서울특별시,11440,마포구,11440590,용강동,1144010500,용강동,1144010500105020000,502.0,,서울특별시 마포구 용강동 502,114404139597,서울특별시 마포구 토정로31길,서울특별시 마포구 토정로31길 23,1.0,126.941477546043,37.5416287419121,1028931059,20.0,85.0
9612,MA0101202406A0185133,투다리,투다리수락산역점,,I2,음식,I211,주점,I21104,요리 주점,I56213,생맥주 전문점,11,서울특별시,11350,노원구,11350630,상계1동,1135010500,상계동,1135010500111320023,1132.0,23.0,서울특별시 노원구 상계동 1132-23,113504130242,서울특별시 노원구 동일로241길,서울특별시 노원구 동일로241길 36,1.0,127.054468953874,37.6777701549451,1081565572,20.0,82.0
9614,MA0101202406A0195352,투다리,투다리,,I2,음식,I211,주점,I21104,요리 주점,I56111,한식 일반 음식점업,11,서울특별시,11410,서대문구,11410660,홍은1동,1141011800,홍은동,1141011800100480167,48.0,167.0,서울특별시 서대문구 홍은동 48-167,114104136402,서울특별시 서대문구 통일로42길,서울특별시 서대문구 통일로42길 10,1.0,126.942207910319,37.5922200141218,1633955223,30.0,69.99000000000001
9617,MA010120220800006890,투다리,이원투다리,,I2,음식,I211,주점,I21104,요리 주점,I56219,기타 주점업,11,서울특별시,11110,종로구,11110680,창신2동,1111017400,창신동,1111017400105830095,583.0,95.0,서울특별시 종로구 창신동 583-95,111104100453,서울특별시 종로구 창신길,서울특별시 종로구 창신길 80-6,,127.01078825308,37.5750877664262,11763445,20.0,70.0
9620,MA010120220809294139,투다리,투다리,,I2,음식,I211,주점,I21104,요리 주점,I56219,기타 주점업,11,서울특별시,11710,송파구,11710641,문정1동,1171010800,문정동,1171010800100400008,40.0,8.0,서울특별시 송파구 문정동 40-8,117104169071,서울특별시 송파구 동남로4길,서울특별시 송파구 동남로4길 22,1.0,127.124559951203,37.4882291448752,1499542160,40.0,234.0
9624,MA010120220804082221,투다리,투다리,,I2,음식,I211,주점,I21104,요리 주점,I56219,기타 주점업,11,서울특별시,11740,강동구,11740580,암사2동,1174010700,암사동,1174010700105030014,503.0,14.0,서울특별시 강동구 암사동 503-14,117404172139,서울특별시 강동구 상암로5길,서울특별시 강동구 상암로5길 24,,127.127471527135,37.5513863156626,11763036,40.0,135.0
9625,MA010120220801318207,투다리,투다리정,다운점,I2,음식,I211,주점,I21104,요리 주점,I56219,기타 주점업,11,서울특별시,11710,송파구,11710646,장지동,1171010800,문정동,1171010800101150006,115.0,6.0,서울특별시 송파구 문정동 115-6,117104169239,서울특별시 송파구 새말로19길,서울특별시 송파구 새말로19길 20,1.0,127.131184906293,37.4876273096318,20627148,40.0,234.0
9626,MA010120220803134815,투다리,투다리,,I2,음식,I211,주점,I21104,요리 주점,I56219,기타 주점업,11,서울특별시,11440,마포구,11440585,도화동,1144010400,도화동,1144010400103420000,342.0,,서울특별시 마포구 도화동 342,114404139062,서울특별시 마포구 도화2길,서울특별시 마포구 도화2길 6,,126.948686336913,37.5401995048095,11762532,30.0,158.01000000000002
9627,MA010120220804089691,투다리,투다리,,I2,음식,I211,주점,I21104,요리 주점,I56219,기타 주점업,11,서울특별시,11740,강동구,11740600,천호1동,1174010900,천호동,1174010900103930001,393.0,1.0,서울특별시 강동구 천호동 393-1,117403016054,서울특별시 강동구 구천면로,서울특별시 강동구 구천면로 254,,127.131711732581,37.5429302979426,11763033,20.0,177.0
9631,MA0101202306A0051573,투다리,투다리,,I2,음식,I211,주점,I21104,요리 주점,I56219,기타 주점업,11,서울특별시,11170,용산구,11170700,보광동,1117013600,보광동,1117013600102160056,216.0,56.0,서울특별시 용산구 보광동 216-56,111703102011,서울특별시 용산구 장문로,서울특별시 용산구 장문로 98,1.0,127.000373325242,37.5260018662155,11762655,20.0,97.0
9632,MA0101202306A0047225,투다리,투다리,,I2,음식,I211,주점,I21104,요리 주점,I56219,기타 주점업,11,서울특별시,11500,강서구,11500620,공항동,1150010800,공항동,1150010800100530026,53.0,26.0,서울특별시 강서구 공항동 53-26,115003115006,서울특별시 강서구 송정로,서울특별시 강서구 송정로 64,1.0,126.810082572415,37.5604204711911,38623533,20.0,45.0
9637,MA0101202308A0079630,투다리,투다리,,I2,음식,I211,주점,I21104,요리 주점,I56219,기타 주점업,11,서울특별시,11260,중랑구,11260690,신내2동,1126010600,신내동,1126010600106480000,648.0,,서울특별시 중랑구 신내동 648,112603106007,서울특별시 중랑구 신내로,서울특별시 중랑구 신내로 225,,127.091360778687,37.6169670149357,33913614,20.0,88.0
9644,MA0101202310A0008233,투다리,투다리염창역점,,I2,음식,I211,주점,I21104,요리 주점,I56219,기타 주점업,11,서울특별시,11470,양천구,11470520,목2동,1147010200,목동,1147010200105130021,513.0,21.0,서울특별시 양천구 목동 513-21,114703114007,서울특별시 양천구 목동중앙북로,서울특별시 양천구 목동중앙북로 85,1.0,126.872774469821,37.5464761415217,1303376300,70.0,682.01
9645,MA0101202310A0017603,투다리,투다리,구파발점,I2,음식,I211,주점,I21104,요리 주점,I56219,기타 주점업,11,서울특별시,11380,은평구,11380690,진관동,1138011400,진관동,1138011400101000005,100.0,5.0,서울특별시 은평구 진관동 100-5,113803111009,서울특별시 은평구 진관1로,서울특별시 은평구 진관1로 21-39,1.0,126.91856559452,37.6338587733013,2057633951,20.0,18.0
9651,MA0101202311A0039588,투다리,투다리,,I2,음식,I211,주점,I21104,요리 주점,I56111,한식 일반 음식점업,11,서울특별시,11500,강서구,11500611,발산1동,1150010600,내발산동,1150010600107540002,754.0,2.0,서울특별시 강서구 내발산동 754-2,115003115007,서울특별시 강서구 수명로,서울특별시 강서구 수명로 31,1.0,126.82314615664,37.5497729624913,1419163382,20.0,33.0
9655,MA010120220800789238,투다리,투다리,잠원점,I2,음식,I211,주점,I21104,요리 주점,I56219,기타 주점업,11,서울특별시,11650,서초구,11650540,잠원동,1165010600,잠원동,1165010600100390004,39.0,4.0,서울특별시 서초구 잠원동 39-4,116504163460,서울특별시 서초구 신반포로47길,서울특별시 서초구 신반포로47길 33-3,1.0,127.019047335813,37.511980720944,1648301419,20.0,59.0
9657,MA010120220803774096,투다리,투다리자양,본점,I2,음식,I211,주점,I21104,요리 주점,I56219,기타 주점업,11,서울특별시,11215,광진구,11215820,자양1동,1121510500,자양동,1121510500106160015,616.0,15.0,서울특별시 광진구 자양동 616-15,112154112416,서울특별시 광진구 자양로13길,서울특별시 광진구 자양로13길 104,,127.079672198833,37.532453194023,38008590,70.0,261.03000000000003
9659,MA010120220800980465,투다리,투다리,,I2,음식,I211,주점,I21104,요리 주점,I56219,기타 주점업,11,서울특별시,11545,금천구,11545510,가산동,1154510100,가산동,1154510100100420005,42.0,5.0,서울특별시 금천구 가산동 42-5,115454151225,서울특별시 금천구 벚꽃로38길,서울특별시 금천구 벚꽃로38길 29,,126.884460821776,37.4824178000663,31704963,20.0,106.0
9662,MA010120220800481421,투다리,투다리,,I2,음식,I211,주점,I21104,요리 주점,I56219,기타 주점업,11,서울특별시,11500,강서구,11500540,화곡1동,1150010300,화곡동,1150010300109030017,903.0,17.0,서울특별시 강서구 화곡동 903-17,115004145080,서울특별시 강서구 강서로7길,서울특별시 강서구 강서로7길 5,1.0,126.847483690345,37.529606503727,1419163382,20.0,149.0
9677,MA0101202306A0030560,투다리,투다리,불광점,I2,음식,I211,주점,I21104,요리 주점,I56219,기타 주점업,11,서울특별시,11380,은평구,11380570,대조동,1138010600,대조동,1138010600100150020,15.0,20.0,서울특별시 은평구 대조동 15-20,113803000008,서울특별시 은평구 통일로,서울특별시 은평구 통일로 715-10,1.0,126.929702075786,37.6099447212131,1772298298,20.0,51.0
9679,MA0101202306A0023656,투다리,투다리크라운빌점,,I2,음식,I211,주점,I21104,요리 주점,I56219,기타 주점업,11,서울특별시,11530,구로구,11530510,신도림동,1153010100,신도림동,1153010100104190004,419.0,4.0,서울특별시 구로구 신도림동 419-4,115304148116,서울특별시 구로구 경인로63길,서울특별시 구로구 경인로63길 11,1.0,126.885224994606,37.5076287043255,1249130122,20.0,37.0
9682,MA0101202302A0077256,투다리,투다리,,I2,음식,I211,주점,I21104,요리 주점,I56219,기타 주점업,11,서울특별시,11680,강남구,11680531,논현2동,1168010800,논현동,1168010800102320001,232.0,1.0,서울특별시 강남구 논현동 232-1,116804166564,서울특별시 강남구 언주로113길,서울특별시 강남구 언주로113길 19,1.0,127.035718003797,37.5090305716981,38623517,40.0,471.0
9689,MA0101202305A0164529,투다리,투다리,명일점,I2,음식,I211,주점,I21104,요리 주점,I56219,기타 주점업,11,서울특별시,11740,강동구,11740530,명일1동,1174010100,명일동,1174010100103360020,336.0,20.0,서울특별시 강동구 명일동 336-20,117404172251,서울특별시 강동구 양재대로134길,서울특별시 강동구 양재대로134길 19,1.0,127.144733824554,37.5477624268551,1035238447,20.0,71.0
9695,MA0101202305A0004121,투다리,투다리강일점,,I2,음식,I211,주점,I21104,요리 주점,I56111,한식 일반 음식점업,11,서울특별시,11740,강동구,11740515,강일동,1174011000,강일동,1174011000106790003,679.0,3.0,서울특별시 강동구 강일동 679-3,117403000035,서울특별시 강동구 아리수로,서울특별시 강동구 아리수로 419,1.0,127.173730444327,37.56437373971,1410502929,30.0,0.0
9706,MA0101202307A0052654,투다리,투다리신수점,,I2,음식,I211,주점,I21104,요리 주점,I56219,기타 주점업,11,서울특별시,11440,마포구,11440630,신수동,1144011100,신수동,1144011100100930214,93.0,214.0,서울특별시 마포구 신수동 93-214,114403113001,서울특별시 마포구 광성로,서울특별시 마포구 광성로 37,1.0,126.937351839507,37.5499428458176,1939007632,20.0,64.0
9707,MA010120220804175433,투다리,투다리,,I2,음식,I211,주점,I21104,요리 주점,I56219,기타 주점업,11,서울특별시,11650,서초구,11650651,양재1동,1165010200,양재동,1165010200100080006,8.0,6.0,서울특별시 서초구 양재동 8-6,116504163016,서울특별시 서초구 강남대로34길,서울특별시 서초구 강남대로34길 43,1.0,127.038238645883,37.4837925871281,11763050,20.0,145.0
9712,MA010120220800496512,투다리,투다리,,I2,음식,I211,주점,I21104,요리 주점,I56219,기타 주점업,11,서울특별시,11500,강서구,11500570,화곡4동,1150010300,화곡동,1150010300107810009,781.0,9.0,서울특별시 강서구 화곡동 781-9,115004145166,서울특별시 강서구 곰달래로60길,서울특별시 강서구 곰달래로60길 11,,126.863228087535,37.5317341285719,1419163382,20.0,149.0
9713,MA010120220808126378,투다리,투다리거여역점,,I2,음식,I211,주점,I21104,요리 주점,I56219,기타 주점업,11,서울특별시,11710,송파구,11710532,거여2동,1171011300,거여동,1171011300100360006,36.0,6.0,서울특별시 송파구 거여동 36-6,117103123014,서울특별시 송파구 오금로,서울특별시 송파구 오금로 515,1.0,127.146166271178,37.4931599271141,1586082919,30.0,81.0
9716,MA010120220804237206,투다리,투다리,,I2,음식,I211,주점,I21104,요리 주점,I56219,기타 주점업,11,서울특별시,11710,송파구,11710562,방이2동,1171011100,방이동,1171011100100620000,62.0,,서울특별시 송파구 방이동 62,117104169429,서울특별시 송파구 올림픽로32길,서울특별시 송파구 올림픽로32길 24,,127.109445798186,37.5139047503999,1287787447,60.0,535.98
9719,MA0101202212A0036727,투다리,투다리,,I2,음식,I211,주점,I21104,요리 주점,I56219,기타 주점업,11,서울특별시,11560,영등포구,11560535,영등포동,1156010400,영등포동3가,1156010400100040007,4.0,7.0,서울특별시 영등포구 영등포동3가 4-7,115604154725,서울특별시 영등포구 영등포로46길,서울특별시 영등포구 영등포로46길 4,1.0,126.907650281971,37.5189649726438,1695228763,20.0,41.0
9720,MA010120220803927746,투다리,투다리,남구로점,I2,음식,I211,주점,I21104,요리 주점,I56122,일식 음식점업,11,서울특별시,11530,구로구,11530550,구로4동,1153010200,구로동,1153010200107700014,770.0,14.0,서울특별시 구로구 구로동 770-14,115304148211,서울특별시 구로구 구로동로22길,서울특별시 구로구 구로동로22길 84,1.0,126.888499877207,37.4882061516425,1006449916,20.0,129.0
9721,MA010120220812788410,투다리,투다리강남,자곡점,I2,음식,I211,주점,I21104,요리 주점,I56219,기타 주점업,11,서울특별시,11680,강남구,11680700,세곡동,1168011200,자곡동,1168011200106510000,651.0,,서울특별시 강남구 자곡동 651,116803122014,서울특별시 강남구 자곡로,서울특별시 강남구 자곡로 180,1.0,127.103361607327,37.4737163228632,37274628,30.0,51.99
9722,MA010120220803459169,투다리,투다리,,I2,음식,I211,주점,I21104,요리 주점,I56219,기타 주점업,11,서울특별시,11740,강동구,11740700,둔촌2동,1174010600,둔촌동,1174010600100590009,59.0,9.0,서울특별시 강동구 둔촌동 59-9,117403124002,서울특별시 강동구 명일로,서울특별시 강동구 명일로 167,,127.144559940763,37.533896263163,11762504,30.0,68.00999999999999
9723,MA010120220814143000,투다리,투다리,,I2,음식,I211,주점,I21104,요리 주점,I56219,기타 주점업,11,서울특별시,11440,마포구,11440690,망원1동,1144012300,망원동,1144012300103780010,378.0,10.0,서울특별시 마포구 망원동 378-10,114404139133,서울특별시 마포구 동교로9길,서울특별시 마포구 동교로9길 34,1.0,126.910015935772,37.555394234699,1485786520,40.0,1046.0
9724,MA010120220813897204,투다리,투다리,,I2,음식,I211,주점,I21104,요리 주점,I56219,기타 주점업,11,서울특별시,11440,마포구,11440700,망원2동,1144012300,망원동,1144012300104780003,478.0,3.0,서울특별시 마포구 망원동 478-3,114404139498,서울특별시 마포구 월드컵로29길,서울특별시 마포구 월드컵로29길 5,1.0,126.905799770657,37.5602563298623,38623516,40.0,1046.0
9725,MA010120220812695363,투다리,투다리성산점,,I2,음식,I211,주점,I21104,요리 주점,I56219,기타 주점업,11,서울특별시,11440,마포구,11440720,성산1동,1144012500,성산동,1144012500100540002,54.0,2.0,서울특별시 마포구 성산동 54-2,114403113019,서울특별시 마포구 월드컵북로,서울특별시 마포구 월드컵북로 133,1.0,126.912042260186,37.5645769177138,1399990922,20.0,109.0
9731,MA0101202211A0089047,투다리,투다리,월드컵점,I2,음식,I211,주점,I21104,요리 주점,I56219,기타 주점업,11,서울특별시,11440,마포구,11440730,성산2동,1144012500,성산동,1144012500105920008,592.0,8.0,서울특별시 마포구 성산동 592-8,114404139208,서울특별시 마포구 모래내로1길,서울특별시 마포구 모래내로1길 9,2.0,126.903655055819,37.5646064110877,1399990922,20.0,109.0
9735,MA010120220813517386,투다리,투다리,,I2,음식,I211,주점,I21104,요리 주점,I56219,기타 주점업,11,서울특별시,11560,영등포구,11560540,여의동,1156011000,여의도동,1156011000100440035,44.0,35.0,서울특별시 영등포구 여의도동 44-35,115603118028,서울특별시 영등포구 여의대방로,서울특별시 영등포구 여의대방로 379,1.0,126.930929853175,37.5191340508749,33920130,20.0,79.0
9736,MA010120220812511406,투다리,투다리신림역점,,I2,음식,I211,주점,I21104,요리 주점,I56219,기타 주점업,11,서울특별시,11620,관악구,11620645,서원동,1162010200,신림동,1162010200116370004,1637.0,4.0,서울특별시 관악구 신림동 1637-4,116203120005,서울특별시 관악구 신림로,서울특별시 관악구 신림로 307,2.0,126.92975441371,37.4818587446852,1854604083,20.0,201.0
9738,MA010120220803676652,투다리,투다리,,I2,음식,I211,주점,I21104,요리 주점,I56219,기타 주점업,11,서울특별시,11290,성북구,11290640,정릉3동,1129013300,정릉동,1129013300103940003,394.0,3.0,서울특별시 성북구 정릉동 394-3,112904121140,서울특별시 성북구 보국문로11길,서울특별시 성북구 보국문로11길 30,,127.00835815162,37.6087580368339,20087273,20.0,26.0
9742,MA010120220804232416,투다리,투다리,,I2,음식,I211,주점,I21104,요리 주점,I56219,기타 주점업,11,서울특별시,11710,송파구,11710550,마천2동,1171011400,마천동,1171011400100250002,25.0,2.0,서울특별시 송파구 마천동 25-2,117103123004,서울특별시 송파구 마천로,서울특별시 송파구 마천로 235,,127.143985564907,37.4999471795109,11762530,60.0,88.98
9744,MA010120220807078472,투다리,투다리문정,본점,I2,음식,I211,주점,I21104,요리 주점,I56219,기타 주점업,11,서울특별시,11710,송파구,11710641,문정1동,1171010800,문정동,1171010800100600013,60.0,13.0,서울특별시 송파구 문정동 60-13,117104169240,서울특별시 송파구 새말로5길,서울특별시 송파구 새말로5길 30,1.0,127.123718332772,37.4852657141798,38495035,40.0,234.0
9746,MA010120220803624366,투다리,투다리,,I2,음식,I211,주점,I21104,요리 주점,I56219,기타 주점업,11,서울특별시,11230,동대문구,11230560,전농1동,1123010400,전농동,1123010400105820005,582.0,5.0,서울특별시 동대문구 전농동 582-5,112303105004,서울특별시 동대문구 서울시립대로,서울특별시 동대문구 서울시립대로 116,,127.051647154249,37.5807532245342,11763327,20.0,108.0
9750,MA010120220813859321,투다리,투다리가락,시장점,I2,음식,I211,주점,I21104,요리 주점,I56219,기타 주점업,11,서울특별시,11710,송파구,11710620,가락본동,1171010700,가락동,1171010700100980000,98.0,,서울특별시 송파구 가락동 98,117104169334,서울특별시 송파구 송파대로30길,서울특별시 송파구 송파대로30길 16,,127.119165204307,37.4945777981371,1097653409,30.0,174.99
9751,MA010120220804450291,투다리,투다리포이점,,I2,음식,I211,주점,I21104,요리 주점,I56219,기타 주점업,11,서울특별시,11680,강남구,11680690,개포4동,1168010300,개포동,1168010300112180023,1218.0,23.0,서울특별시 강남구 개포동 1218-23,116804166055,서울특별시 강남구 개포로22길,서울특별시 강남구 개포로22길 21,1.0,127.048670573685,37.4776438690609,11763539,40.0,147.0
9755,MA010120220803616359,투다리,투다리,,I2,음식,I211,주점,I21104,요리 주점,I56219,기타 주점업,11,서울특별시,11260,중랑구,11260630,묵2동,1126010400,묵동,1126010400102330012,233.0,12.0,서울특별시 중랑구 묵동 233-12,112603106010,서울특별시 중랑구 중랑역로,서울특별시 중랑구 중랑역로 243,1.0,127.075365749793,37.6151853478775,36547208,20.0,65.0
9765,MA010120220800260292,투다리,투다리,,I2,음식,I211,주점,I21104,요리 주점,I56219,기타 주점업,11,서울특별시,11260,중랑구,11260520,면목2동,1126010100,면목동,1126010100101830100,183.0,100.0,서울특별시 중랑구 면목동 183-100,112604118070,서울특별시 중랑구 동일로109길,서울특별시 중랑구 동일로109길 21,1.0,127.078840967707,37.5918474344515,1965537486,40.0,179.0
9766,MA010120220805990689,투다리,투다리화곡,본점,I2,음식,I211,주점,I21104,요리 주점,I56219,기타 주점업,11,서울특별시,11500,강서구,11500590,화곡본동,1150010300,화곡동,1150010300101050006,105.0,6.0,서울특별시 강서구 화곡동 105-6,115003115003,서울특별시 강서구 까치산로,서울특별시 강서구 까치산로 30,1.0,126.843780528015,37.5422156600301,1419163382,20.0,149.0
9767,MA010120220805157335,투다리,투다리도,봉산점,I2,음식,I211,주점,I21104,요리 주점,I56219,기타 주점업,11,서울특별시,11320,도봉구,11320521,도봉1동,1132010800,도봉동,1132010800105650001,565.0,1.0,서울특별시 도봉구 도봉동 565-1,113204127186,서울특별시 도봉구 도봉로181길,서울특별시 도봉구 도봉로181길 13,2.0,127.045177225451,37.6838737037852,37882755,20.0,24.0
9769,MA010120220813799332,투다리,투다리,,I2,음식,I211,주점,I21104,요리 주점,I56219,기타 주점업,11,서울특별시,11170,용산구,11170580,효창동,1117011900,효창동,1117011900100050674,5.0,674.0,서울특별시 용산구 효창동 5-674,111703005022,서울특별시 용산구 효창원로,서울특별시 용산구 효창원로 144,1.0,126.962173535967,37.5408262851674,11763680,20.0,38.0
9770,MA010120220803908694,투다리,투다리,,I2,음식,I211,주점,I21104,요리 주점,I56219,기타 주점업,11,서울특별시,11290,성북구,11290810,석관동,1129013900,석관동,1129013900101280004,128.0,4.0,서울특별시 성북구 석관동 128-4,112904121716,서울특별시 성북구 한천로78길,서울특별시 성북구 한천로78길 36,1.0,127.064319848611,37.6120744648276,11762815,20.0,132.0
9771,MA010120220800176016,투다리,투다리,,I2,음식,I211,주점,I21104,요리 주점,I56219,기타 주점업,11,서울특별시,11440,마포구,11440680,합정동,1144012200,합정동,1144012200103830003,383.0,3.0,서울특별시 마포구 합정동 383-3,114404139491,서울특별시 마포구 월드컵로1길,서울특별시 마포구 월드컵로1길 5,,126.912682432102,37.5494586610127,11763604,20.0,125.0
9774,MA010120220814080522,투다리,투다리,,I2,음식,I211,주점,I21104,요리 주점,I56219,기타 주점업,11,서울특별시,11740,강동구,11740650,성내2동,1174010800,성내동,1174010800100410006,41.0,6.0,서울특별시 강동구 성내동 41-6,117404172415,서울특별시 강동구 천호옛길,서울특별시 강동구 천호옛길 83,1.0,127.125262076809,37.5362518993183,38623449,20.0,141.0
9775,MA010120220803763602,투다리,투다리,,I2,음식,I211,주점,I21104,요리 주점,I56219,기타 주점업,11,서울특별시,11215,광진구,11215830,자양2동,1121510500,자양동,1121510500106790035,679.0,35.0,서울특별시 광진구 자양동 679-35,112154112469,서울특별시 광진구 자양로5길,서울특별시 광진구 자양로5길 18,,127.08473980398,37.5315666855765,38008590,70.0,261.03000000000003
9776,MA010120220809274963,투다리,투다리,,I2,음식,I211,주점,I21104,요리 주점,I56219,기타 주점업,11,서울특별시,11380,은평구,11380590,응암2동,1138010700,응암동,1138010700103350014,335.0,14.0,서울특별시 은평구 응암동 335-14,113804133227,서울특별시 은평구 응암로14길,서울특별시 은평구 응암로14길 11,,126.918624453767,37.5902509584765,38623545,20.0,113.0
9778,MA010120220803204573,투다리,투다리,,I2,음식,I211,주점,I21104,요리 주점,I56219,기타 주점업,11,서울특별시,11530,구로구,11530560,구로5동,1153010200,구로동,1153010200100400003,40.0,3.0,서울특별시 구로구 구로동 40-3,115304148193,서울특별시 구로구 공원로6나길,서울특별시 구로구 공원로6나길 12,1.0,126.890784025034,37.5036695536584,1006449916,20.0,129.0
9780,MA010120220809883579,투다리,투다리길1점,,I2,음식,I211,주점,I21104,요리 주점,I56219,기타 주점업,11,서울특별시,11740,강동구,11740685,길동,1174010500,길동,1174010500103890003,389.0,3.0,서울특별시 강동구 길동 389-3,117404172230,서울특별시 강동구 양재대로111길,서울특별시 강동구 양재대로111길 10,1.0,127.139112713698,37.5372094754305,11762307,60.0,361.98
9781,MA010120220803713854,투다리,투다리,,I2,음식,I211,주점,I21104,요리 주점,I56219,기타 주점업,11,서울특별시,11230,동대문구,11230710,회기동,1123010800,회기동,1123010800100760001,76.0,1.0,서울특별시 동대문구 회기동 76-1,112303105020,서울특별시 동대문구 회기로,서울특별시 동대문구 회기로 172,,127.055073133836,37.5902391315429,11762184,20.0,52.0
9782,MA010120220800263042,투다리,투다리,제일점,I2,음식,I211,주점,I21104,요리 주점,I56219,기타 주점업,11,서울특별시,11170,용산구,11170700,보광동,1117013600,보광동,1117013600102310019,231.0,19.0,서울특별시 용산구 보광동 231-19,111703102003,서울특별시 용산구 보광로,서울특별시 용산구 보광로 49,,126.998698977099,37.5283624847981,11762655,20.0,97.0
9783,MA010120220813354789,투다리,투다리,,I2,음식,I211,주점,I21104,요리 주점,I56219,기타 주점업,11,서울특별시,11710,송파구,11710550,마천2동,1171011400,마천동,1171011400105760000,576.0,,서울특별시 송파구 마천동 576,117103123010,서울특별시 송파구 성내천로,서울특별시 송파구 성내천로 211,,127.151631084273,37.5002799953925,11762530,60.0,88.98
9786,MA010120220804244764,투다리,투다리,,I2,음식,I211,주점,I21104,요리 주점,I56219,기타 주점업,11,서울특별시,11710,송파구,11710650,잠실본동,1171010100,잠실동,1171010100103150009,315.0,9.0,서울특별시 송파구 잠실동 315-9,117104169170,서울특별시 송파구 백제고분로18길,서울특별시 송파구 백제고분로18길 4-7,1.0,127.084415395898,37.5047170256318,11681610,20.0,72.0
9788,MA010120220804326711,투다리,투다리,,I2,음식,I211,주점,I21104,요리 주점,I56219,기타 주점업,11,서울특별시,11260,중랑구,11260565,면목본동,1126010100,면목동,1126010100101150001,115.0,1.0,서울특별시 중랑구 면목동 115-1,112603005029,서울특별시 중랑구 겸재로,서울특별시 중랑구 겸재로 178,,127.087464685801,37.5881833312881,1965537486,40.0,179.0
9789,MA010120220800274949,투다리,투다리,,I2,음식,I211,주점,I21104,요리 주점,I56219,기타 주점업,11,서울특별시,11170,용산구,11170650,이태원1동,1117013000,이태원동,1117013000101280007,128.0,7.0,서울특별시 용산구 이태원동 128-7,111704106127,서울특별시 용산구 보광로59길,서울특별시 용산구 보광로59길 14,,126.993358620918,37.5340656437777,33212274,20.0,62.0
9792,MA010120220806450858,투다리,투다리,,I2,음식,I211,주점,I21104,요리 주점,I56219,기타 주점업,11,서울특별시,11740,강동구,11740570,암사1동,1174010700,암사동,1174010700104630000,463.0,,서울특별시 강동구 암사동 463,117403123023,서울특별시 강동구 올림픽로,서울특별시 강동구 올림픽로 816,,127.129105125254,37.5537001043505,11763036,40.0,135.0
9794,MA010120220809263008,투다리,투다리한양점,,I2,음식,I211,주점,I21104,요리 주점,I56219,기타 주점업,11,서울특별시,11710,송파구,11710590,송파2동,1171010400,송파동,1171010400101030031,103.0,31.0,서울특별시 송파구 송파동 103-31,117103123001,서울특별시 송파구 가락로,서울특별시 송파구 가락로 156,1.0,127.11303756515,37.5029902047177,38623450,20.0,45.0
9795,MA010120220800582352,투다리,투다리,신촌점,I2,음식,I211,주점,I21104,요리 주점,I56219,기타 주점업,11,서울특별시,11410,서대문구,11410585,신촌동,1141011600,창천동,1141011600100520128,52.0,128.0,서울특별시 서대문구 창천동 52-128,114104136246,서울특별시 서대문구 연세로9길,서울특별시 서대문구 연세로9길 17,,126.935862081897,37.5584564741759,1511895794,20.0,222.0
9796,MA010120220811942795,투다리,투다리,등촌점,I2,음식,I211,주점,I21104,요리 주점,I56219,기타 주점업,11,서울특별시,11500,강서구,11500520,등촌1동,1150010200,등촌동,1150010200106280032,628.0,32.0,서울특별시 강서구 등촌동 628-32,115004145188,서울특별시 강서구 공항대로45길,서울특별시 강서구 공항대로45길 101,1.0,126.857338142671,37.559054443644,1191797892,20.0,95.0
9798,MA010120220800180014,투다리,투다리,,I2,음식,I211,주점,I21104,요리 주점,I56219,기타 주점업,11,서울특별시,11440,마포구,11440660,서교동,1144012100,동교동,1144012100101860007,186.0,7.0,서울특별시 마포구 동교동 186-7,114404139390,서울특별시 마포구 신촌로12길,서울특별시 마포구 신촌로12길 20,,126.932548618996,37.5555173767044,11762455,20.0,69.0
9800,MA010120220803753460,투다리,투다리봉화점,,I2,음식,I211,주점,I21104,요리 주점,I56219,기타 주점업,11,서울특별시,11260,중랑구,11260620,묵1동,1126010400,묵동,1126010400101720001,172.0,1.0,서울특별시 중랑구 묵동 172-1,112603106006,서울특별시 중랑구 숙선옹주로,서울특별시 중랑구 숙선옹주로 24,,127.079023338744,37.6143990954208,20908017,20.0,65.0
9801,MA010120220800874036,투다리,투다리,,I2,음식,I211,주점,I21104,요리 주점,I56219,기타 주점업,11,서울특별시,11470,양천구,11470630,신정2동,1147010100,신정동,1147010100101290018,129.0,18.0,서울특별시 양천구 신정동 129-18,114704142233,서울특별시 양천구 신목로2길,서울특별시 양천구 신목로2길 7-18,,126.874711010762,37.5185201636797,39168395,20.0,171.0
9803,MA010120220803738336,투다리,투다리,,I2,음식,I211,주점,I21104,요리 주점,I56219,기타 주점업,11,서울특별시,11215,광진구,11215730,군자동,1121510900,군자동,1121510900101840000,184.0,,서울특별시 광진구 군자동 184,112153000001,서울특별시 광진구 동일로,서울특별시 광진구 동일로 278,1.0,127.07227317603,37.5561452218762,20836096,20.0,68.0
9806,MA010120220803566310,투다리,투다리,명지대점,I2,음식,I211,주점,I21104,요리 주점,I56219,기타 주점업,11,서울특별시,11410,서대문구,11410700,남가좌2동,1141012000,남가좌동,1141012000103440021,344.0,21.0,서울특별시 서대문구 남가좌동 344-21,114104136324,서울특별시 서대문구 증가로10길,서울특별시 서대문구 증가로10길 9,1.0,126.923086896307,37.5779463855364,11762557,20.0,48.0
9809,MA010120220801407200,투다리,투다리반달점,,I2,음식,I211,주점,I21104,요리 주점,I56219,기타 주점업,41,경기도,41590,화성시,41590550,반월동,4159012000,반월동,4159012000100660009,66.0,9.0,경기도 화성시 반월동 66-9,415904430967,경기도 화성시 영통로26번길,경기도 화성시 영통로26번길 15,,127.065484895177,37.2341239226986,18698285,20.0,66.0
9810,MA010120220802400468,투다리,투다리,,I2,음식,I211,주점,I21104,요리 주점,I56219,기타 주점업,41,경기도,41173,안양시 동안구,41173530,비산3동,4117310100,비산동,4117310100110260011,1026.0,11.0,경기도 안양시 동안구 비산동 1026-11,411733183011,경기도 안양시 동안구 운곡로,경기도 안양시 동안구 운곡로 5,1.0,126.94879075779,37.4038496603238,2095041405,40.0,141.0
9811,MA010120220807160367,투다리,투다리중산,마을점,I2,음식,I211,주점,I21104,요리 주점,I56213,생맥주 전문점,41,경기도,41285,고양시 일산동구,41285525,중산1동,4128510200,중산동,4128510200115790001,1579.0,1.0,경기도 고양시 일산동구 중산동 1579-1,412853194033,경기도 고양시 일산동구 탄중로,경기도 고양시 일산동구 탄중로 429,,126.778741080015,37.6871345512701,11763401,20.0,442.0
9813,MA010120220801272636,투다리,투다리,,I2,음식,I211,주점,I21104,요리 주점,I56219,기타 주점업,41,경기도,41117,수원시 영통구,41117593,망포1동,4111710700,망포동,4111710700104830001,483.0,1.0,경기도 수원시 영통구 망포동 483-1,411174331150,경기도 수원시 영통구 영통로90번길,경기도 수원시 영통구 영통로90번길 4-12,,127.060461695248,37.2376677057841,1527496076,20.0,62.0
9814,MA010120220802420139,투다리,투다리,명지점,I2,음식,I211,주점,I21104,요리 주점,I56219,기타 주점업,41,경기도,41461,용인시 처인구,41461525,역북동,4146110200,역북동,4146110200107220003,722.0,3.0,경기도 용인시 처인구 역북동 722-3,414613203041,경기도 용인시 처인구 명지로,경기도 용인시 처인구 명지로 15-6,,127.189479762206,37.2344229504547,30936104,20.0,59.0
9816,MA010120220808629269,투다리,투다리별내역점,,I2,음식,I211,주점,I21104,요리 주점,I56219,기타 주점업,41,경기도,41360,남양주시,41360570,별내동,4136011100,별내동,4136011100110060001,1006.0,1.0,경기도 남양주시 별내동 1006-1,413603197091,경기도 남양주시 별내중앙로,경기도 남양주시 별내중앙로 30,,127.125683921812,37.6458931229874,38506418,20.0,82.0
9817,MA010120220801888087,투다리,투다리,,I2,음식,I211,주점,I21104,요리 주점,I56219,기타 주점업,41,경기도,41135,성남시 분당구,41135620,야탑1동,4113510700,야탑동,4113510700103700002,370.0,2.0,경기도 성남시 분당구 야탑동 370-2,411354340292,경기도 성남시 분당구 야탑로105번길,경기도 성남시 분당구 야탑로105번길 14,,127.130633332277,37.4110598145514,33928144,20.0,34.0
9819,MA0101202209A0087748,투다리,투다리,,I2,음식,I211,주점,I21104,요리 주점,I56219,기타 주점업,41,경기도,41133,성남시 중원구,41133660,하대원동,4113310900,하대원동,4113310900105390000,539.0,,경기도 성남시 중원구 하대원동 539,411332179001,경기도 성남시 중원구 둔촌대로,경기도 성남시 중원구 둔촌대로 363,,127.155630432108,37.4328972394416,11763559,20.0,26.0
9820,MA0101202209A0018339,투다리,투다리,,I2,음식,I211,주점,I21104,요리 주점,I56219,기타 주점업,41,경기도,41570,김포시,41570560,장기동,4157010400,장기동,4157010400113740000,1374.0,,경기도 김포시 장기동 1374,415704427117,경기도 김포시 김포한강1로84번길,경기도 김포시 김포한강1로84번길 26,1.0,126.671709999776,37.6450077637921,1730250001,40.0,328.0
9821,MA0101202209A0022363,투다리,투다리고덕풍경채점,,I2,음식,I211,주점,I21104,요리 주점,I56111,한식 일반 음식점업,41,경기도,41220,평택시,41220660,고덕동,4122012800,고덕동,4122012800118990002,1899.0,2.0,경기도 평택시 고덕동 1899-2,412202348217,경기도 평택시 고덕국제대로,경기도 평택시 고덕국제대로 179,,127.041417143994,37.0540128129874,1853019392,30.0,89.01
9826,MA010120220809305441,투다리,투다리,양벌점,I2,음식,I211,주점,I21104,요리 주점,I56219,기타 주점업,41,경기도,41610,광주시,41610590,오포2동,4161012000,양벌동,4161012000103670005,367.0,5.0,경기도 광주시 양벌동 367-5,416104433167,경기도 광주시 마루들길,경기도 광주시 마루들길 228,,127.256747026914,37.3775875546757,1361681577,20.0,11.0
9827,MA010120220802324575,투다리,투다리사１동점,,I2,음식,I211,주점,I21104,요리 주점,I56219,기타 주점업,41,경기도,41271,안산시 상록구,41271525,사동,4127110300,사동,4127110300113050003,1305.0,3.0,경기도 안산시 상록구 사동 1305-3,412713190040,경기도 안산시 상록구 석호로,경기도 안산시 상록구 석호로 176,,126.850978046833,37.2965805242877,33913448,50.0,195.0
9829,MA010120220804790524,투다리,투다리동탄,호수공원점,I2,음식,I211,주점,I21104,요리 주점,I56111,한식 일반 음식점업,41,경기도,41590,화성시,41590610,동탄7동,4159013500,산척동,4159013500107270005,727.0,5.0,경기도 화성시 산척동 727-5,415904852341,경기도 화성시 동탄대로6길,경기도 화성시 동탄대로6길 17,2.0,127.108732090411,37.1687208426622,1157369732,20.0,35.0
9831,MA010120220810424886,투다리,투다리안골점,,I2,음식,I211,주점,I21104,요리 주점,I56219,기타 주점업,41,경기도,41150,의정부시,41150615,흥선동,4115011000,가능동,4115011000106970039,697.0,39.0,경기도 의정부시 가능동 697-39,411503000136,경기도 의정부시 호국로,경기도 의정부시 호국로 1109,1.0,127.027127923281,37.7431092295711,11762705,30.0,66.99000000000001
9835,MA010120220801484726,투다리,투다리,,I2,음식,I211,주점,I21104,요리 주점,I56219,기타 주점업,41,경기도,41550,안성시,41550250,공도읍,4155025026,공도읍,4155025026100630008,63.0,8.0,경기도 안성시 공도읍 승두리 63-8,415504424060,경기도 안성시 공도읍 고무다리길,경기도 안성시 공도읍 고무다리길 13-3,,127.169906634553,36.9983830014755,1743446425,20.0,41.0
9838,MA010120220801394894,투다리,투다리갈곶점,,I2,음식,I211,주점,I21104,요리 주점,I56219,기타 주점업,41,경기도,41370,오산시,41370523,대원1동,4137012400,갈곶동,4137012400101300006,130.0,6.0,경기도 오산시 갈곶동 130-6,413703198031,경기도 오산시 오산로,경기도 오산시 오산로 61,,127.068716926653,37.1322398794304,30883695,30.0,56.01
9839,MA010120220801671123,투다리,투다리,,I2,음식,I211,주점,I21104,요리 주점,I56219,기타 주점업,41,경기도,41150,의정부시,41150520,의정부2동,4115010100,의정부동,4115010100104420012,442.0,12.0,경기도 의정부시 의정부동 442-12,411503181060,경기도 의정부시 시민로,경기도 의정부시 시민로 83,,127.044518509367,37.7387702825695,33920367,20.0,126.0
9840,MA010120220801519500,투다리,투다리,,I2,음식,I211,주점,I21104,요리 주점,I56219,기타 주점업,41,경기도,41550,안성시,41550250,공도읍,4155025025,공도읍,4155025025101040002,104.0,2.0,경기도 안성시 공도읍 용두리 104-2,415503208016,경기도 안성시 공도읍 덕봉서원로,경기도 안성시 공도읍 덕봉서원로 27,1.0,127.169532243473,37.0068536972609,1743446425,20.0,41.0
9841,MA010120220802879305,투다리,투다리,미금점,I2,음식,I211,주점,I21104,요리 주점,I56219,기타 주점업,41,경기도,41135,성남시 분당구,41135662,금곡동,4113511100,금곡동,4113511100101550000,155.0,,경기도 성남시 분당구 금곡동 155,411353180007,경기도 성남시 분당구 돌마로,경기도 성남시 분당구 돌마로 73,,127.110077053747,37.3503967799369,11763342,20.0,98.0
9843,MA010120220802820628,투다리,투다리,옥길점,I2,음식,I211,주점,I21104,요리 주점,I56219,기타 주점업,41,경기도,41220,평택시,41220259,청북읍,4122025924,청북읍,4122025924111660002,1166.0,2.0,경기도 평택시 청북읍 옥길리 1166-2,412204364458,경기도 평택시 청북읍 안청로2길,경기도 평택시 청북읍 안청로2길 14-7,1.0,126.917520378294,37.017155354809,30893094,20.0,29.0
9847,MA010120220808272986,투다리,투다리,,I2,음식,I211,주점,I21104,요리 주점,I56219,기타 주점업,41,경기도,41450,하남시,41450520,신장1동,4145010600,신장동,4145010600104270239,427.0,239.0,경기도 하남시 신장동 427-239,414504406193,경기도 하남시 신평로61번길,경기도 하남시 신평로61번길 13,,127.204516745911,37.5393487945946,1949468612,20.0,55.0
9848,MA010120220809291201,투다리,투다리,,I2,음식,I211,주점,I21104,요리 주점,I56219,기타 주점업,41,경기도,41150,의정부시,41150555,호원2동,4115010200,호원동,4115010200100100061,10.0,61.0,경기도 의정부시 호원동 10-61,411504343487,경기도 의정부시 회룡로105번길,경기도 의정부시 회룡로105번길 8,,127.045736068807,37.726219297871,33928124,20.0,33.0
9850,MA010120220802356706,투다리,투다리,,I2,음식,I211,주점,I21104,요리 주점,I56219,기타 주점업,41,경기도,41273,안산시 단원구,41273590,선부2동,4127310900,선부동,4127310900110700012,1070.0,12.0,경기도 안산시 단원구 선부동 1070-12,412733191034,경기도 안산시 단원구 선부광장1로,경기도 안산시 단원구 선부광장1로 14,,126.807286694719,37.3358565431453,33913458,50.0,94.0
9852,MA010120220802534684,투다리,투다리,,I2,음식,I211,주점,I21104,요리 주점,I56219,기타 주점업,41,경기도,41570,김포시,41570250,통진읍,4157025022,통진읍,4157025022101470002,147.0,2.0,경기도 김포시 통진읍 마송리 147-2,415703209032,경기도 김포시 통진읍 담터로,경기도 김포시 통진읍 담터로 11,,126.592291412272,37.6927819718892,19099376,20.0,30.0
9856,MA010120220802398143,투다리,투다리,흥덕점,I2,음식,I211,주점,I21104,요리 주점,I56219,기타 주점업,41,경기도,41463,용인시 기흥구,41463516,영덕1동,4146311100,영덕동,4146311100109870008,987.0,8.0,경기도 용인시 기흥구 영덕동 987-8,414634412299,경기도 용인시 기흥구 흥덕2로75번길,경기도 용인시 기흥구 흥덕2로75번길 30,,127.070886773264,37.2744515181681,19553635,20.0,40.0
9857,MA010120220802225440,투다리,투다리,,I2,음식,I211,주점,I21104,요리 주점,I56219,기타 주점업,41,경기도,41310,구리시,41310580,수택2동,4131010500,수택동,4131010500104790003,479.0,3.0,경기도 구리시 수택동 479-3,413104388022,경기도 구리시 검배로84번길,경기도 구리시 검배로84번길 14,1.0,127.146851746655,37.5948007324346,33869095,20.0,48.0
9858,MA010120220801375711,투다리,투다리궐동점,,I2,음식,I211,주점,I21104,요리 주점,I56219,기타 주점업,41,경기도,41370,오산시,41370530,남촌동,4137010400,궐동,4137010400106400006,640.0,6.0,경기도 오산시 궐동 640-6,413703198007,경기도 오산시 궐리사로,경기도 오산시 궐리사로 103,,127.063618316833,37.1584635745257,37673412,20.0,228.0
9859,MA010120220801935794,투다리,투다리,,I2,음식,I211,주점,I21104,요리 주점,I56111,한식 일반 음식점업,41,경기도,41133,성남시 중원구,41133510,성남동,4113310100,성남동,4113310100132380000,3238.0,,경기도 성남시 중원구 성남동 3238,411333179004,경기도 성남시 중원구 광명로,경기도 성남시 중원구 광명로 14-1,1.0,127.130840949586,37.4330083693856,1295337239,20.0,197.0
9861,MA010120220812359121,투다리,투다리,,I2,음식,I211,주점,I21104,요리 주점,I56219,기타 주점업,41,경기도,41220,평택시,41220250,팽성읍,4122025021,팽성읍,4122025021101260003,126.0,3.0,경기도 평택시 팽성읍 객사리 126-3,412203188014,경기도 평택시 팽성읍 동서촌로,경기도 평택시 팽성읍 동서촌로 74,1.0,127.060368467569,36.9644372461854,33920384,20.0,76.0
9862,MA010120220802208290,투다리,투다리,,I2,음식,I211,주점,I21104,요리 주점,I56219,기타 주점업,41,경기도,41360,남양주시,41360256,화도읍,4136025628,화도읍,4136025628107260004,726.0,4.0,경기도 남양주시 화도읍 창현리 726-4,413604391082,경기도 남양주시 화도읍 경춘로1922번길,경기도 남양주시 화도읍 경춘로1922번길 19-8,,127.302895157066,37.6500040593877,33869087,20.0,162.0
9863,MA010120220802456674,투다리,투다리연무2점,,I2,음식,I211,주점,I21104,요리 주점,I56219,기타 주점업,41,경기도,41111,수원시 장안구,41111600,연무동,4111113700,연무동,4111113700102460017,246.0,17.0,경기도 수원시 장안구 연무동 246-17,411113174013,경기도 수원시 장안구 창훈로,경기도 수원시 장안구 창훈로 3-2,1.0,127.030856270533,37.2928228873149,11763077,20.0,957.0
9865,MA010120220804146966,투다리,투다리,권선점,I2,음식,I211,주점,I21104,요리 주점,I56219,기타 주점업,41,경기도,41113,수원시 권선구,41113690,곡선동,4111313700,권선동,4111313700112920001,1292.0,1.0,경기도 수원시 권선구 권선동 1292-1,411134325304,경기도 수원시 권선구 세권로304번길,경기도 수원시 권선구 세권로304번길 21-2,1.0,127.036554013215,37.25117515431,1282028808,60.0,169.02
9869,MA010120220801476251,투다리,투다리뉴코아점,,I2,음식,I211,주점,I21104,요리 주점,I56219,기타 주점업,41,경기도,41220,평택시,41220630,비전2동,4122011800,비전동,4122011800108310007,831.0,7.0,경기도 평택시 비전동 831-7,412204364859,경기도 평택시 평택5로96번길,경기도 평택시 평택5로96번길 10,1.0,127.112269576505,36.9946849843921,11762371,20.0,106.0
9871,MA010120220813487841,투다리,투다리남부점,,I2,음식,I211,주점,I21104,요리 주점,I56219,기타 주점업,41,경기도,41220,평택시,41220520,서정동,4122010100,서정동,4122010100108510007,851.0,7.0,경기도 평택시 서정동 851-7,412203188028,경기도 평택시 서정로,경기도 평택시 서정로 252,,127.061291808804,37.065546956897,33920356,20.0,47.0
9872,MA010120220810259258,투다리,투다리,초월점,I2,음식,I211,주점,I21104,요리 주점,I56219,기타 주점업,41,경기도,41610,광주시,41610253,초월읍,4161025321,초월읍,4161025321101960029,196.0,29.0,경기도 광주시 초월읍 대쌍령리 196-29,416102012002,경기도 광주시 초월읍 경충대로,경기도 광주시 초월읍 경충대로 1248,,127.288665267134,37.3864070343695,37890072,20.0,96.0
9875,MA010120220804882528,투다리,투다리,,I2,음식,I211,주점,I21104,요리 주점,I56219,기타 주점업,41,경기도,41281,고양시 덕양구,41281655,행신3동,4128112800,행신동,4128112800109450003,945.0,3.0,경기도 고양시 덕양구 행신동 945-3,412814376213,경기도 고양시 덕양구 중앙로558번길,경기도 고양시 덕양구 중앙로558번길 7-4,3.0,126.835679612834,37.6242400266396,1719596272,20.0,120.0
9879,MA010120220813240875,투다리,투다리월드점,,I2,음식,I211,주점,I21104,요리 주점,I56219,기타 주점업,41,경기도,41115,수원시 팔달구,41115710,우만1동,4111514000,우만동,4111514000105610009,561.0,9.0,경기도 수원시 팔달구 우만동 561-9,411154328306,경기도 수원시 팔달구 중부대로143번길,경기도 수원시 팔달구 중부대로143번길 13,1.0,127.031921867671,37.2790907736523,11763231,50.0,92.0
9880,MA010120220802224701,투다리,투다리,,I2,음식,I211,주점,I21104,요리 주점,I56219,기타 주점업,41,경기도,41820,가평군,41820250,가평읍,4182025021,가평읍,4182025021106730000,673.0,,경기도 가평군 가평읍 읍내리 673,418203216024,경기도 가평군 가평읍 석봉로,경기도 가평군 가평읍 석봉로 224,,127.509375926229,37.8349089913319,33920377,20.0,24.0
9888,MA010120220801869528,투다리,투다리,,I2,음식,I211,주점,I21104,요리 주점,I56219,기타 주점업,41,경기도,41133,성남시 중원구,41133525,중앙동,4113313200,중앙동,4113313200123030000,2303.0,,경기도 성남시 중원구 중앙동 2303,411334337211,경기도 성남시 중원구 산성대로334번길,경기도 성남시 중원구 산성대로334번길 11,,127.154293810367,37.4422695456632,19440422,60.0,1888.02
9889,MA010120220808413730,투다리,투다리옥정,신도시점,I2,음식,I211,주점,I21104,요리 주점,I56219,기타 주점업,41,경기도,41630,양주시,41630580,옥정2동,4163011400,옥정동,4163011400110800001,1080.0,1.0,경기도 양주시 옥정동 1080-1,416304852461,경기도 양주시 옥정동로5다길,경기도 양주시 옥정동로5다길 9,1.0,127.097499665541,37.8159058765714,1578963865,20.0,129.0
9891,MA010120220801504910,투다리,비전투다리,,I2,음식,I211,주점,I21104,요리 주점,I56219,기타 주점업,41,경기도,41220,평택시,41220620,비전1동,4122011800,비전동,4122011800107930008,793.0,8.0,경기도 평택시 비전동 793-8,412204364240,경기도 평택시 비전1로57번길,경기도 평택시 비전1로57번길 79,,127.094425816825,37.0000078952755,30895214,20.0,106.0
9892,MA010120220802040781,투다리,투다리복돼지점,,I2,음식,I211,주점,I21104,요리 주점,I56219,기타 주점업,41,경기도,41192,부천시 원미구,41192540,원미1동,4119210100,원미동,4119210100100920005,92.0,5.0,경기도 부천시 원미구 원미동 92-5,411923184003,경기도 부천시 원미구 부천로,경기도 부천시 원미구 부천로 124,1.0,126.78553923651,37.4952541443214,33869061,20.0,70.0
9893,MA010120220802038742,투다리,투다리,,I2,음식,I211,주점,I21104,요리 주점,I56219,기타 주점업,41,경기도,41194,부천시 소사구,41194510,심곡본1동,4119410200,심곡본동,4119410200105910000,591.0,,경기도 부천시 소사구 심곡본동 591,411944355025,경기도 부천시 소사구 경인로194번길,경기도 부천시 소사구 경인로194번길 17,1.0,126.776857337303,37.4829032923747,11763390,20.0,32.0
9894,MA010120220803373134,투다리,투다리,,I2,음식,I211,주점,I21104,요리 주점,I56219,기타 주점업,41,경기도,41135,성남시 분당구,41135545,정자동,4113510300,정자동,4113510300100620003,62.0,3.0,경기도 성남시 분당구 정자동 62-3,411354340029,경기도 성남시 분당구 내정로107번길,경기도 성남시 분당구 내정로107번길 9,1.0,127.113649966281,37.3696032980045,11763342,30.0,246.99
9895,MA010120220808334838,투다리,투다리,,I2,음식,I211,주점,I21104,요리 주점,I56219,기타 주점업,41,경기도,41480,파주시,41480520,금촌2동,4148010100,금촌동,4148010100109570005,957.0,5.0,경기도 파주시 금촌동 957-5,414804418852,경기도 파주시 한마음2길,경기도 파주시 한마음2길 24,,126.772985360972,37.7565613987555,2480101,20.0,42.0
9897,MA010120220806622387,투다리,투다리,상신점,I2,음식,I211,주점,I21104,요리 주점,I56219,기타 주점업,41,경기도,41590,화성시,41590259,향남읍,4159025924,향남읍,4159025924112820007,1282.0,7.0,경기도 화성시 향남읍 상신리 1282-7,415904848199,경기도 화성시 향남읍 상신하길로135번길,경기도 화성시 향남읍 상신하길로135번길 10-32,,126.900536759651,37.1067359843332,1291877594,20.0,78.0
9898,MA010120220801987941,투다리,투다리,,I2,음식,I211,주점,I21104,요리 주점,I56219,기타 주점업,41,경기도,41210,광명시,41210650,소하2동,4121010400,소하동,4121010400112410011,1241.0,11.0,경기도 광명시 소하동 1241-11,412103187056,경기도 광명시 충현로,경기도 광명시 충현로 1,,126.880486782292,37.4361739197719,36798233,20.0,62.0
9899,MA010120220804083477,투다리,투다리정왕역점,,I2,음식,I211,주점,I21104,요리 주점,I56219,기타 주점업,41,경기도,41390,시흥시,41390589,정왕본동,4139013200,정왕동,4139013200123270001,2327.0,1.0,경기도 시흥시 정왕동 2327-1,413903199015,경기도 시흥시 마유로,경기도 시흥시 마유로 416,1.0,126.741276056063,37.3515977035003,17961774,30.0,119.01
9900,MA010120220802775615,투다리,투다리,,I2,음식,I211,주점,I21104,요리 주점,I56219,기타 주점업,41,경기도,41480,파주시,41480520,금촌2동,4148010100,금촌동,4148010100109870005,987.0,5.0,경기도 파주시 금촌동 987-5,414803206160,경기도 파주시 금빛로,경기도 파주시 금빛로 44-1,,126.767892131628,37.7522989219821,33913603,20.0,42.0
9902,MA010120220808736975,투다리,투다리,,I2,음식,I211,주점,I21104,요리 주점,I56219,기타 주점업,41,경기도,41113,수원시 권선구,41113540,세류3동,4111312600,세류동,4111312600110900004,1090.0,4.0,경기도 수원시 권선구 세류동 1090-4,411133175031,경기도 수원시 권선구 세지로,경기도 수원시 권선구 세지로 36,1.0,127.016130644819,37.2553515306507,1761442329,40.0,81.0
9905,MA010120220801428891,투다리,투다리,,I2,음식,I211,주점,I21104,요리 주점,I56219,기타 주점업,41,경기도,41111,수원시 장안구,41111572,정자2동,4111113000,정자동,4111113000100750013,75.0,13.0,경기도 수원시 장안구 정자동 75-13,411114322285,경기도 수원시 장안구 장안로75번길,경기도 수원시 장안구 장안로75번길 49,1.0,127.000202994531,37.2901237952086,38623524,30.0,246.99
9907,MA010120220800098117,투다리,투다리,,I2,음식,I211,주점,I21104,요리 주점,I56219,기타 주점업,41,경기도,41150,의정부시,41150576,송산2동,4115010600,민락동,4115010600107010001,701.0,1.0,경기도 의정부시 민락동 701-1,411504343293,경기도 의정부시 용현로150번길,경기도 의정부시 용현로150번길 7,1.0,127.092533300851,37.7403551046863,11762607,20.0,484.0
9912,MA010120220801981346,투다리,투다리,중동역점,I2,음식,I211,주점,I21104,요리 주점,I56219,기타 주점업,41,경기도,41192,부천시 원미구,41192670,상동,4119210900,상동,4119210900103290012,329.0,12.0,경기도 부천시 원미구 상동 329-12,411924352530,경기도 부천시 원미구 중동로85번길,경기도 부천시 원미구 중동로85번길 7,,126.764745111563,37.487501958916,1348993470,50.0,489.0
9914,MA010120220801287528,투다리,투다리청점,만안구,I2,음식,I211,주점,I21104,요리 주점,I56219,기타 주점업,41,경기도,41171,안양시 만안구,41171560,안양6동,4117110100,안양동,4117110100105040022,504.0,22.0,경기도 안양시 만안구 안양동 504-22,411713182016,경기도 안양시 만안구 안양로,경기도 안양시 만안구 안양로 145-1,,126.930621846963,37.3873336740327,2171101,20.0,65.0
9915,MA010120220801769120,투다리,투다리후곡,1호점,I2,음식,I211,주점,I21104,요리 주점,I56219,기타 주점업,41,경기도,41287,고양시 일산서구,41287530,일산3동,4128710100,일산동,4128710100110630000,1063.0,,경기도 고양시 일산서구 일산동 1063,412873193028,경기도 고양시 일산서구 일산로,경기도 고양시 일산서구 일산로 558,,126.766398615437,37.6786776113005,2287101,20.0,105.0
9925,MA010120220802552756,투다리,투다리사우점,,I2,음식,I211,주점,I21104,요리 주점,I56219,기타 주점업,41,경기도,41570,김포시,41570540,사우동,4157010600,사우동,4157010600102490000,249.0,,경기도 김포시 사우동 249,415703209140,경기도 김포시 봉화로,경기도 김포시 봉화로 11,,126.716286097875,37.618066860551,11762724,20.0,51.0
9926,MA010120220801515644,투다리,투다리,,I2,음식,I211,주점,I21104,요리 주점,I56219,기타 주점업,41,경기도,41550,안성시,41550520,안성2동,4155011800,석정동,4155011800103550000,355.0,,경기도 안성시 석정동 355,415504424394,경기도 안성시 석정2길,경기도 안성시 석정2길 13-8,,127.25869313805,37.0090536811482,37135316,20.0,15.0
9927,MA010120220800292588,투다리,북문투다리,,I2,음식,I211,주점,I21104,요리 주점,I56219,기타 주점업,41,경기도,41111,수원시 장안구,41111580,영화동,4111113400,영화동,4111113400102750008,275.0,8.0,경기도 수원시 장안구 영화동 275-8,411114322404,경기도 수원시 장안구 팔달로271번길,경기도 수원시 장안구 팔달로271번길 38,,127.013600800438,37.2910510832338,11762703,20.0,75.0
9928,MA010120220801885969,투다리,투다리,,I2,음식,I211,주점,I21104,요리 주점,I56219,기타 주점업,41,경기도,41133,성남시 중원구,41133660,하대원동,4113310900,하대원동,4113310900101320011,132.0,11.0,경기도 성남시 중원구 하대원동 132-11,411332179001,경기도 성남시 중원구 둔촌대로,경기도 성남시 중원구 둔촌대로 285,1.0,127.149782838476,37.4298413400232,11763559,20.0,26.0
9931,MA010120220814104121,투다리,투다리향남2점,,I2,음식,I211,주점,I21104,요리 주점,I56219,기타 주점업,41,경기도,41590,화성시,41590259,향남읍,4159025926,향남읍,4159025926114670004,1467.0,4.0,경기도 화성시 향남읍 하길리 1467-4,415903210190,경기도 화성시 향남읍 발안양감로,경기도 화성시 향남읍 발안양감로 201,,126.912316375871,37.1159451554682,1291877594,20.0,78.0
9935,MA010120220811451931,투다리,투다리서문점,,I2,음식,I211,주점,I21104,요리 주점,I56219,기타 주점업,41,경기도,41111,수원시 장안구,41111580,영화동,4111113400,영화동,4111113400104440008,444.0,8.0,경기도 수원시 장안구 영화동 444-8,411113176014,경기도 수원시 장안구 팔달로,경기도 수원시 장안구 팔달로 197,1.0,127.007589298297,37.2857264841049,1793730638,20.0,75.0
9937,MA010120220805125702,투다리,투다리,,I2,음식,I211,주점,I21104,요리 주점,I56219,기타 주점업,41,경기도,41271,안산시 상록구,41271537,해양동,4127110300,사동,4127110300111550005,1155.0,5.0,경기도 안산시 상록구 사동 1155-5,412714370508,경기도 안산시 상록구 학사2길,경기도 안산시 상록구 학사2길 18,1.0,126.840063959294,37.3002875579748,38623561,50.0,195.0
9943,MA0101202411A0080726,투다리,투다리KT위즈파크점,,I2,음식,I211,주점,I21104,요리 주점,I56111,한식 일반 음식점업,41,경기도,41111,수원시 장안구,41111591,송죽동,4111113500,송죽동,4111113500104990003,499.0,3.0,경기도 수원시 장안구 송죽동 499-3,411112012008,경기도 수원시 장안구 경수대로,경기도 수원시 장안구 경수대로 935,1.0,127.007918036035,37.3020442536809,1726660159,20.0,63.0
9944,MA0101202411A0100570,투다리,투다리,풍산점,I2,음식,I211,주점,I21104,요리 주점,I56111,한식 일반 음식점업,41,경기도,41450,하남시,41450560,덕풍3동,4145010800,덕풍동,4145010800107430000,743.0,,경기도 하남시 덕풍동 743,414503202016,경기도 하남시 덕풍동로,경기도 하남시 덕풍동로 111-10,,127.208364196201,37.5516857359395,1943308046,20.0,39.0
9947,MA0101202501A0064269,투다리,투다리김포달빛점,,I2,음식,I211,주점,I21104,요리 주점,I56111,한식 일반 음식점업,41,경기도,41570,김포시,41570340,대곶면,4157034025,대곶면,4157034025104340004,434.0,4.0,경기도 김포시 대곶면 율생리 434-4,415703209100,경기도 김포시 대곶면 율생로,경기도 김포시 대곶면 율생로 35,1.0,126.58771400642,37.6512311630127,1318355491,20.0,27.0
9948,MA0101202501A0044088,투다리,투다리,,I2,음식,I211,주점,I21104,요리 주점,I56213,생맥주 전문점,41,경기도,41480,파주시,41480262,조리읍,4148026221,조리읍,4148026221101410039,141.0,39.0,경기도 파주시 조리읍 봉일천리 141-39,414803206039,경기도 파주시 조리읍 봉천로,경기도 파주시 조리읍 봉천로 23,1.0,126.809004258768,37.743038697074,19183117,20.0,25.0
9952,MA0101202505A0045306,투다리,투다리가평현리점,,I2,음식,I211,주점,I21104,요리 주점,I56111,한식 일반 음식점업,41,경기도,41820,가평군,41820345,조종면,4182034521,조종면,4182034521102620045,262.0,45.0,경기도 가평군 조종면 현리 262-45,418204448296,경기도 가평군 조종면 현창로38번길,경기도 가평군 조종면 현창로38번길 20,,127.349392590495,37.8197976850802,2018131613,20.0,75.0
9955,MA0101202412A0023466,투다리,투다리,호평점,I2,음식,I211,주점,I21104,요리 주점,I56219,기타 주점업,41,경기도,41360,남양주시,41360510,호평동,4136010100,호평동,4136010100106170003,617.0,3.0,경기도 남양주시 호평동 617-3,413603197014,경기도 남양주시 늘을3로,경기도 남양주시 늘을3로 65-6,,127.247617734251,37.6597284767004,37373366,80.0,94.0
9956,MA0101202504A0007186,투다리,투다리맘모스점,,I2,음식,I211,주점,I21104,요리 주점,I56111,한식 일반 음식점업,41,경기도,41194,부천시 소사구,41194540,소사본1동,4119410100,소사본동,4119410100101580038,158.0,38.0,경기도 부천시 소사구 소사본동 158-38,411944355282,경기도 부천시 소사구 은성로67번길,경기도 부천시 소사구 은성로67번길 5,2.0,126.798201124454,37.4754723199099,31630871,20.0,43.0
9959,MA0101202503A0034355,투다리,투다리,희망점,I2,음식,I211,주점,I21104,요리 주점,I56122,일식 음식점업,41,경기도,41192,부천시 원미구,41192610,약대동,4119210800,중동,4119210800100460007,46.0,7.0,경기도 부천시 원미구 중동 46-7,411923184002,경기도 부천시 원미구 도약로,경기도 부천시 원미구 도약로 185,2.0,126.770022477307,37.5106141015453,1348993470,30.0,1410.99
9960,MA0101202503A0074369,투다리,투다리고덕브리티씨점,,I2,음식,I211,주점,I21104,요리 주점,I56111,한식 일반 음식점업,41,경기도,41220,평택시,41220660,고덕동,4122012800,고덕동,4122012800126180003,2618.0,3.0,경기도 평택시 고덕동 2618-3,412202348217,경기도 평택시 고덕국제대로,경기도 평택시 고덕국제대로 77,,127.041906505188,37.0443621295514,1363603624,30.0,89.01
9962,MA0101202504A0077537,투다리,투다리장,호원점,I2,음식,I211,주점,I21104,요리 주점,I56111,한식 일반 음식점업,41,경기도,41500,이천시,41500250,장호원읍,4150025021,장호원읍,4150025021101410011,141.0,11.0,경기도 이천시 장호원읍 장호원리 141-11,415004421670,경기도 이천시 장호원읍 장감로65번길,경기도 이천시 장호원읍 장감로65번길 27,,127.629767958823,37.1183597378023,1055839934,20.0,10.0
9967,MA0101202505A0059167,투다리,투다리신지산점,,I2,음식,I211,주점,I21104,요리 주점,I56213,생맥주 전문점,41,경기도,41220,평택시,41220550,지산동,4122011000,지산동,4122011000107960023,796.0,23.0,경기도 평택시 지산동 796-23,412203188047,경기도 평택시 송탄로,경기도 평택시 송탄로 365,1.0,127.057791630739,37.0760822395213,2022507359,30.0,123.0
9969,MA010120220805475667,투다리,투다리,양지점,I2,음식,I211,주점,I21104,요리 주점,I56193,치킨 전문점,41,경기도,41360,남양주시,41360262,오남읍,4136026221,오남읍,4136026221104940005,494.0,5.0,경기도 남양주시 오남읍 양지리 494-5,413604391555,경기도 남양주시 오남읍 양지로278번길,경기도 남양주시 오남읍 양지로278번길 48,1.0,127.197695346599,37.7024569415927,37541544,20.0,24.0
9970,MA010120220803183260,투다리,투다리,,I2,음식,I211,주점,I21104,요리 주점,I56219,기타 주점업,41,경기도,41271,안산시 상록구,41271580,월피동,4127110900,월피동,4127110900104420019,442.0,19.0,경기도 안산시 상록구 월피동 442-19,412713190071,경기도 안산시 상록구 충장로,경기도 안산시 상록구 충장로 572,1.0,126.850451071479,37.3291792657825,21778557,30.0,60.0
9971,MA010120220802372014,투다리,투다리본오1점,,I2,음식,I211,주점,I21104,요리 주점,I56219,기타 주점업,41,경기도,41271,안산시 상록구,41271540,본오1동,4127110400,본오동,4127110400109490003,949.0,3.0,경기도 안산시 상록구 본오동 949-3,412713190064,경기도 안산시 상록구 이호로,경기도 안산시 상록구 이호로 58-1,1.0,126.863289115885,37.2868641822896,33874644,80.0,130.0
9973,MA010120220801782384,투다리,투다리,,I2,음식,I211,주점,I21104,요리 주점,I56219,기타 주점업,41,경기도,41285,고양시 일산동구,41285525,중산1동,4128510200,중산동,4128510200115690005,1569.0,5.0,경기도 고양시 일산동구 중산동 1569-5,412853194033,경기도 고양시 일산동구 탄중로,경기도 고양시 일산동구 탄중로 321,,126.780831085885,37.6934993397132,11763402,20.0,442.0
9978,MA010120220812678477,투다리,투다리,,I2,음식,I211,주점,I21104,요리 주점,I56219,기타 주점업,41,경기도,41271,안산시 상록구,41271515,이동,4127110200,이동,4127110200107150008,715.0,8.0,경기도 안산시 상록구 이동 715-8,412713190054,경기도 안산시 상록구 양지편로,경기도 안산시 상록구 양지편로 32,,126.850671396656,37.3090684888126,38623561,20.0,14532.0
9981,MA0101202411A0029467,투다리,투다리아미점,,I2,음식,I211,주점,I21104,요리 주점,I56111,한식 일반 음식점업,41,경기도,41500,이천시,41500253,부발읍,4150025330,부발읍,4150025330106770013,677.0,13.0,경기도 이천시 부발읍 아미리 677-13,415004421026,경기도 이천시 부발읍 경충대로2050번길,경기도 이천시 부발읍 경충대로2050번길 15-58,1.0,127.492467268748,37.2509496098366,1670603351,20.0,18.0
9982,MA0101202411A0144462,투다리,투다리,이충점,I2,음식,I211,주점,I21104,요리 주점,I56111,한식 일반 음식점업,41,경기도,41220,평택시,41220510,중앙동,4122010900,이충동,4122010900106650003,665.0,3.0,경기도 평택시 이충동 665-3,412204364636,경기도 평택시 이충로35번길,경기도 평택시 이충로35번길 28,,127.065986393529,37.0592369291775,32176314,40.0,44.0
9984,MA0101202412A0082335,투다리,투다리,원흥점,I2,음식,I211,주점,I21104,요리 주점,I56111,한식 일반 음식점업,41,경기도,41281,고양시 덕양구,41281530,흥도동,4128110400,원흥동,4128110400106310001,631.0,1.0,경기도 고양시 덕양구 원흥동 631-1,412813194061,경기도 고양시 덕양구 원흥4로,경기도 고양시 덕양구 원흥4로 9,1.0,126.875387045729,37.6491738372114,1700196472,20.0,56.0
9986,MA0101202502A0099059,투다리,투다리화서2점,,I2,음식,I211,주점,I21104,요리 주점,I56219,기타 주점업,41,경기도,41115,수원시 팔달구,41115680,화서1동,4111513800,화서동,4111513800100710038,71.0,38.0,경기도 수원시 팔달구 화서동 71-38,411154328360,경기도 수원시 팔달구 팔달로127번길,경기도 수원시 팔달구 팔달로127번길 15,,127.003405345609,37.280104193273,1235386134,20.0,124.0
9987,MA0101202412A0024535,투다리,투다리,,I2,음식,I211,주점,I21104,요리 주점,I56213,생맥주 전문점,41,경기도,41287,고양시 일산서구,41287570,대화동,4128710400,대화동,4128710400122060001,2206.0,1.0,경기도 고양시 일산서구 대화동 2206-1,412873193002,경기도 고양시 일산서구 강성로,경기도 고양시 일산서구 강성로 271,,126.747007837255,37.6771690182804,1817968402,30.0,132.99
9989,MA0101202502A0086413,투다리,투다리능곡역점,,I2,음식,I211,주점,I21104,요리 주점,I56111,한식 일반 음식점업,41,경기도,41390,시흥시,41390640,능곡동,4139011800,능곡동,4139011800109000001,900.0,1.0,경기도 시흥시 능곡동 900-1,413904855408,경기도 시흥시 능곡번영길,경기도 시흥시 능곡번영길 33,1.0,126.806816950779,37.3694550841865,1099285103,40.0,29.0
9992,MA0101202502A0036852,투다리,투다리하남,시청역점,I2,음식,I211,주점,I21104,요리 주점,I56111,한식 일반 음식점업,41,경기도,41450,하남시,41450530,신장2동,4145010600,신장동,4145010600105650009,565.0,9.0,경기도 하남시 신장동 565-9,414502202001,경기도 하남시 하남대로,경기도 하남시 하남대로 794,1.0,127.209363396975,37.5407368488981,1949468612,20.0,55.0
9996,MA010120220801802997,투다리,투다리,,I2,음식,I211,주점,I21104,요리 주점,I56219,기타 주점업,41,경기도,41285,고양시 일산동구,41285590,장항2동,4128510400,장항동,4128510400108540001,854.0,1.0,경기도 고양시 일산동구 장항동 854-1,412854379097,경기도 고양시 일산동구 백마로213번길,경기도 고양시 일산동구 백마로213번길 36,,126.773257897097,37.6559953441206,36762365,20.0,71.0
9997,MA010120220806688674,투다리,투다리,,I2,음식,I211,주점,I21104,요리 주점,I56219,기타 주점업,41,경기도,41480,파주시,41480250,문산읍,4148025022,문산읍,4148025022108880003,888.0,3.0,경기도 파주시 문산읍 당동리 888-3,414803206014,경기도 파주시 문산읍 당동2로,경기도 파주시 문산읍 당동2로 5,,126.784713694466,37.8679236369074,248025022,20.0,52.0
10001,MA010120220801510092,투다리,투다리장당점,,I2,음식,I211,주점,I21104,요리 주점,I56219,기타 주점업,41,경기도,41220,평택시,41220510,중앙동,4122010900,이충동,4122010900106140002,614.0,2.0,경기도 평택시 이충동 614-2,412204364345,경기도 평택시 송탄로40번길,경기도 평택시 송탄로40번길 71-9,,127.057604376329,37.0515281033582,32176314,40.0,44.0
10002,MA010120220801510978,투다리,투다리,,I2,음식,I211,주점,I21104,요리 주점,I56219,기타 주점업,41,경기도,41550,안성시,41550530,안성3동,4155012500,당왕동,4155012500104620001,462.0,1.0,경기도 안성시 당왕동 462-1,415503208007,경기도 안성시 고수2로,경기도 안성시 고수2로 24,,127.259141111027,37.0152431096715,1531503376,20.0,9.0
10004,MA010120220801667109,투다리,투다리,,I2,음식,I211,주점,I21104,요리 주점,I56213,생맥주 전문점,41,경기도,41650,포천시,41650320,내촌면,4165032024,내촌면,4165032024104790007,479.0,7.0,경기도 포천시 내촌면 내리 479-7,416503213046,경기도 포천시 내촌면 포천로,경기도 포천시 내촌면 포천로 2,,127.226877545628,37.7859780985819,31712192,20.0,19.0
10005,MA010120220802899518,투다리,투다리,,I2,음식,I211,주점,I21104,요리 주점,I56219,기타 주점업,41,경기도,41360,남양주시,41360530,금곡동,4136010300,금곡동,4136010300104160001,416.0,1.0,경기도 남양주시 금곡동 416-1,413603197033,경기도 남양주시 사릉로,경기도 남양주시 사릉로 14,,127.207665581889,37.6342717443008,38623465,20.0,98.0
10006,MA010120220801302729,투다리,투다리,,I2,음식,I211,주점,I21104,요리 주점,I56219,기타 주점업,41,경기도,41410,군포시,41410520,군포2동,4141010100,당동,4141010100109030001,903.0,1.0,경기도 군포시 당동 903-1,414104400038,경기도 군포시 군포로490번길,경기도 군포시 군포로490번길 6,1.0,126.944910991488,37.3499666317415,1235699754,20.0,64.0
10007,MA0101202409A0198764,투다리,투다리덕이점,,I2,음식,I211,주점,I21104,요리 주점,I56213,생맥주 전문점,41,경기도,41287,고양시 일산서구,41287600,덕이동,4128710500,덕이동,4128710500115440000,1544.0,,경기도 고양시 일산서구 덕이동 1544,412873194048,경기도 고양시 일산서구 하이파크2로,경기도 고양시 일산서구 하이파크2로 42,1.0,126.753975019858,37.6990684455821,1313055923,40.0,41.0
10013,MA010120220801351931,투다리,투다리,원평점,I2,음식,I211,주점,I21104,요리 주점,I56219,기타 주점업,41,경기도,41590,화성시,41590310,매송면,4159031022,매송면,4159031022100640019,64.0,19.0,경기도 화성시 매송면 원평리 64-19,415904431404,경기도 화성시 매송면 화성로2397번길,경기도 화성시 매송면 화성로2397번길 1,1.0,126.927423749432,37.2490861532263,31631764,20.0,13.0
10014,MA010120220802401657,투다리,투다리,,I2,음식,I211,주점,I21104,요리 주점,I56194,김밥 및 기타 간이 음식점업,41,경기도,41463,용인시 기흥구,41463510,신갈동,4146310100,신갈동,4146310100100310004,31.0,4.0,경기도 용인시 기흥구 신갈동 31-4,414633204043,경기도 용인시 기흥구 신구로,경기도 용인시 기흥구 신구로 55,,127.109406493228,37.2771253058882,1704457799,20.0,22.0
10017,MA010120220813422791,투다리,투다리,,I2,음식,I211,주점,I21104,요리 주점,I56219,기타 주점업,41,경기도,41115,수원시 팔달구,41115710,우만1동,4111514000,우만동,4111514000104780000,478.0,,경기도 수원시 팔달구 우만동 478,411154328224,경기도 수원시 팔달구 월드컵로369번길,경기도 수원시 팔달구 월드컵로369번길 27,1.0,127.029242233599,37.2894624253422,11763231,50.0,92.0
10018,MA010120220811672977,투다리,투다리탄현점,,I2,음식,I211,주점,I21104,요리 주점,I56219,기타 주점업,41,경기도,41287,고양시 일산서구,41287545,탄현1동,4128710300,탄현동,4128710300115770004,1577.0,4.0,경기도 고양시 일산서구 탄현동 1577-4,412873194013,경기도 고양시 일산서구 산현로,경기도 고양시 일산서구 산현로 15,,126.763314439619,37.6896273301348,1833177201,20.0,42.0
10019,MA010120220808696864,투다리,투다리,,I2,음식,I211,주점,I21104,요리 주점,I56111,한식 일반 음식점업,41,경기도,41630,양주시,41630550,회천3동,4163011000,덕정동,4163011000102080009,208.0,9.0,경기도 양주시 덕정동 208-9,416304436075,경기도 양주시 고암길,경기도 양주시 고암길 306-53,,127.068013330726,37.8367116467343,1371901069,20.0,17.0
10020,MA010120220808704970,투다리,투다리,,I2,음식,I211,주점,I21104,요리 주점,I56219,기타 주점업,41,경기도,41590,화성시,41590587,동탄3동,4159011800,능동,4159011800110640005,1064.0,5.0,경기도 화성시 능동 1064-5,415903012002,경기도 화성시 동탄원천로,경기도 화성시 동탄원천로 354-28,1.0,127.058722394322,37.2182690274706,415172348,20.0,154.0
10021,MA010120220802613364,투다리,투다리,,I2,음식,I211,주점,I21104,요리 주점,I56219,기타 주점업,41,경기도,41430,의왕시,41430550,내손2동,4143010700,내손동,4143010700106710000,671.0,,경기도 의왕시 내손동 671,414303201011,경기도 의왕시 내손중앙로,경기도 의왕시 내손중앙로 59,,126.981786363063,37.3857307803762,2430107,20.0,29.0
10025,MA010120220802417311,투다리,투다리,,I2,음식,I211,주점,I21104,요리 주점,I56219,기타 주점업,41,경기도,41111,수원시 장안구,41111572,정자2동,4111113000,정자동,4111113000100090005,9.0,5.0,경기도 수원시 장안구 정자동 9-5,411114322140,경기도 수원시 장안구 송정로90번길,경기도 수원시 장안구 송정로90번길 3,1.0,127.007285758159,37.2954126629236,38623524,30.0,246.99
10029,MA0101202406A0307772,투다리,투다리평택,신촌점,I2,음식,I211,주점,I21104,요리 주점,I56111,한식 일반 음식점업,41,경기도,41220,평택시,41220535,송탄동,4122010500,칠원동,4122010500105550000,555.0,,경기도 평택시 칠원동 555,412203352294,경기도 평택시 신촌2로,경기도 평택시 신촌2로 21,1.0,127.10452756773,37.0260496522071,1179091686,20.0,26.0
10030,MA0101202406A0322243,투다리,투다리신현점,,I2,음식,I211,주점,I21104,요리 주점,I56111,한식 일반 음식점업,41,경기도,41610,광주시,41610600,신현동,4161011500,신현동,4161011500106600017,660.0,17.0,경기도 광주시 신현동 660-17,416104433275,경기도 광주시 새말길,경기도 광주시 새말길 3,,127.157828910859,37.3605963993941,1705777046,50.0,146.0
10032,MA0101202406A0287084,투다리,투다리쌍령점,,I2,음식,I211,주점,I21104,요리 주점,I56111,한식 일반 음식점업,41,경기도,41610,광주시,41610540,쌍령동,4161010200,쌍령동,4161010200101910020,191.0,20.0,경기도 광주시 쌍령동 191-20,416102012002,경기도 광주시 경충대로,경기도 광주시 경충대로 1468-6,1.0,127.272637148366,37.4006181126181,1361681577,70.0,56.98
10034,MA0101202406A0182849,투다리,투다리,,I2,음식,I211,주점,I21104,요리 주점,I56213,생맥주 전문점,41,경기도,41285,고양시 일산동구,41285551,백석1동,4128510600,백석동,4128510600112820003,1282.0,3.0,경기도 고양시 일산동구 백석동 1282-3,412854379103,경기도 고양시 일산동구 백석로72번길,경기도 고양시 일산동구 백석로72번길 64,1.0,126.788633868483,37.6448156863324,1787409127,30.0,158.01000000000002
10041,MA0101202409A0249397,투다리,투다리,,I2,음식,I211,주점,I21104,요리 주점,I56219,기타 주점업,41,경기도,41133,성남시 중원구,41133670,도촌동,4113310700,도촌동,4113310700105070000,507.0,,경기도 성남시 중원구 도촌동 507,411334337115,경기도 성남시 중원구 도촌로7번길,경기도 성남시 중원구 도촌로7번길 3-1,,127.150114057536,37.4146497699812,33868936,30.0,32.01
10044,MA0101202409A0163019,투다리,투다리,와동점,I2,음식,I211,주점,I21104,요리 주점,I56194,김밥 및 기타 간이 음식점업,41,경기도,41273,안산시 단원구,41273510,와동,4127310200,와동,4127310200106810005,681.0,5.0,경기도 안산시 단원구 와동 681-5,412733191093,경기도 안산시 단원구 보화로,경기도 안산시 단원구 보화로 12,,126.82838639185,37.3317442895777,1271804186,30.0,180.0
10045,MA0101202409A0085574,투다리,투다리,복정점,I2,음식,I211,주점,I21104,요리 주점,I56111,한식 일반 음식점업,41,경기도,41131,성남시 수정구,41131620,복정동,4113110700,복정동,4113110700106860009,686.0,9.0,경기도 성남시 수정구 복정동 686-9,411313178011,경기도 성남시 수정구 복정로,경기도 성남시 수정구 복정로 58,1.0,127.126973993649,37.4581328529356,1899126158,20.0,23.0
10046,MA0101202409A0248941,투다리,투다리,장안점,I2,음식,I211,주점,I21104,요리 주점,I56219,기타 주점업,41,경기도,41220,평택시,41220535,송탄동,4122010800,장안동,4122010800106190000,619.0,,경기도 평택시 장안동 619,412203188101,경기도 평택시 추담로,경기도 평택시 추담로 58-78,,127.077105708987,37.0590229762576,1179091686,60.0,162.0
10047,MA0101202409A0065489,투다리,투다리대곶점,,I2,음식,I211,주점,I21104,요리 주점,I56111,한식 일반 음식점업,41,경기도,41570,김포시,41570340,대곶면,4157034025,대곶면,4157034025105150000,515.0,,경기도 김포시 대곶면 율생리 515,415703209100,경기도 김포시 대곶면 율생로,경기도 김포시 대곶면 율생로 83,,126.582563040035,37.6503391007721,18636677,20.0,27.0
10049,MA0101202409A0141504,투다리,투다리,신천점,I2,음식,I211,주점,I21104,요리 주점,I56111,한식 일반 음식점업,41,경기도,41390,시흥시,41390520,신천동,4139010200,신천동,4139010200107080016,708.0,16.0,경기도 시흥시 신천동 708-16,413904397665,경기도 시흥시 호현로22번길,경기도 시흥시 호현로22번길 16-1,1.0,126.785840747961,37.4411130402063,31618330,20.0,180.0
10050,MA0101202409A0132539,투다리,투다리공도,블루밍점,I2,음식,I211,주점,I21104,요리 주점,I56111,한식 일반 음식점업,41,경기도,41550,안성시,41550250,공도읍,4155025029,공도읍,4155025029108800000,880.0,,경기도 안성시 공도읍 만정리 880,415503208010,경기도 안성시 공도읍 공도로,경기도 안성시 공도읍 공도로 140,,127.17568913597,37.001906821935,1743446425,20.0,41.0
10053,MA0101202409A0054245,투다리,투다리,,I2,음식,I211,주점,I21104,요리 주점,I56111,한식 일반 음식점업,41,경기도,41131,성남시 수정구,41131625,위례동,4113110800,창곡동,4113110800105600000,560.0,,경기도 성남시 수정구 창곡동 560,411313000238,경기도 성남시 수정구 위례광장로,경기도 성남시 수정구 위례광장로 5,1.0,127.141589994719,37.4650179916821,1021830594,20.0,35.0
10060,MA0101202406A0455522,투다리,투다리지축점,,I2,음식,I211,주점,I21104,요리 주점,I56111,한식 일반 음식점업,41,경기도,41281,고양시 덕양구,41281560,효자동,4128110900,지축동,4128110900110700001,1070.0,1.0,경기도 고양시 덕양구 지축동 1070-1,412813352412,경기도 고양시 덕양구 지정로,경기도 고양시 덕양구 지정로 20,,126.916681304521,37.6472641052262,1553186068,20.0,65.0
10062,MA010120220801340795,투다리,투다리,,I2,음식,I211,주점,I21104,요리 주점,I56219,기타 주점업,41,경기도,41115,수원시 팔달구,41115680,화서1동,4111513800,화서동,4111513800101260032,126.0,32.0,경기도 수원시 팔달구 화서동 126-32,411153176020,경기도 수원시 팔달구 화양로,경기도 수원시 팔달구 화양로 16,,126.998263502363,37.2799690735585,36986599,20.0,124.0
10066,MA010120220802878727,투다리,투다리봇들점,,I2,음식,I211,주점,I21104,요리 주점,I56219,기타 주점업,41,경기도,41135,성남시 분당구,41135655,삼평동,4113510900,삼평동,4113510900107280000,728.0,,경기도 성남시 분당구 삼평동 728,411353178016,경기도 성남시 분당구 동판교로,경기도 성남시 분당구 동판교로 212,,127.117538597787,37.4018020628116,33928144,20.0,28.0
10068,MA010120220809636942,투다리,투다리,소사벌점,I2,음식,I211,주점,I21104,요리 주점,I56219,기타 주점업,41,경기도,41220,평택시,41220620,비전1동,4122011800,비전동,4122011800110920001,1092.0,1.0,경기도 평택시 비전동 1092-1,412203198035,경기도 평택시 비전5로,경기도 평택시 비전5로 19,,127.113278622848,37.0009195148806,674460774,20.0,106.0
10069,MA010120220812558966,투다리,투다리아이파크시티점,,I2,음식,I211,주점,I21104,요리 주점,I56219,기타 주점업,41,경기도,41113,수원시 권선구,41113680,권선2동,4111313700,권선동,4111313700113640000,1364.0,,경기도 수원시 권선구 권선동 1364,411134331215,경기도 수원시 권선구 동수원로177번길,경기도 수원시 권선구 동수원로177번길 40,1.0,127.030149905524,37.2466537150438,1426503236,60.0,169.02
10070,MA010120220801438712,투다리,투다리,,I2,음식,I211,주점,I21104,요리 주점,I56219,기타 주점업,41,경기도,41171,안양시 만안구,41171530,안양3동,4117110100,안양동,4117110100106950142,695.0,142.0,경기도 안양시 만안구 안양동 695-142,411714346204,경기도 안양시 만안구 안양로343번길,경기도 안양시 만안구 안양로343번길 13,1.0,126.91778957685,37.4018319035161,1072392881,20.0,65.0
10076,MA0101202406A0084986,투다리,투다리동탄,목동점,I2,음식,I211,주점,I21104,요리 주점,I56111,한식 일반 음식점업,41,경기도,41590,화성시,41590630,동탄9동,4159013400,목동,4159013400104580002,458.0,2.0,경기도 화성시 목동 458-2,415904852424,경기도 화성시 왕배산2길,경기도 화성시 왕배산2길 4-8,1.0,127.124886911097,37.1809322376665,1157369732,70.0,682.01
10077,MA0101202406A0044339,투다리,투다리,서재점,I2,음식,I211,주점,I21104,요리 주점,I56111,한식 일반 음식점업,41,경기도,41220,평택시,41220650,동삭동,4122011900,동삭동,4122011900107110003,711.0,3.0,경기도 평택시 동삭동 711-3,412203198040,경기도 평택시 서재로,경기도 평택시 서재로 22,1.0,127.099922434742,37.0108524129592,1606144209,60.0,60.0
10081,MA0101202406A0047076,투다리,투다리,,I2,음식,I211,주점,I21104,요리 주점,I56199,간이 음식 포장 판매 전문점,41,경기도,41590,화성시,41590550,반월동,4159012000,반월동,4159012000109440000,944.0,,경기도 화성시 반월동 944,415903012002,경기도 화성시 동탄원천로,경기도 화성시 동탄원천로 382-37,1.0,127.05546790962,37.2204691554672,415172348,20.0,66.0
10089,MA0101202310A0008541,투다리,투다리,,I2,음식,I211,주점,I21104,요리 주점,I56219,기타 주점업,41,경기도,41590,화성시,41590520,진안동,4159011600,진안동,4159011600108240006,824.0,6.0,경기도 화성시 진안동 824-6,415903210028,경기도 화성시 떡전골로,경기도 화성시 떡전골로 105,,127.033209883422,37.2078898228976,32087728,20.0,41.0
10095,MA0101202406A0332711,투다리,투다리광명새마을,시장점,I2,음식,I211,주점,I21104,요리 주점,I56111,한식 일반 음식점업,41,경기도,41210,광명시,41210580,광명7동,4121010100,광명동,4121010100103420005,342.0,5.0,경기도 광명시 광명동 342-5,412104361031,경기도 광명시 광명로832번길,경기도 광명시 광명로832번길 5,1.0,126.852368626508,37.4734170223322,1686495110,20.0,41.0
10100,MA0101202406A0474556,투다리,투다리평택3점,,I2,음식,I211,주점,I21104,요리 주점,I56111,한식 일반 음식점업,41,경기도,41220,평택시,41220590,신평동,4122011700,합정동,4122011700107350012,735.0,12.0,경기도 평택시 합정동 735-12,412203188083,경기도 평택시 중앙2로,경기도 평택시 중앙2로 54,1.0,127.092808468758,36.9911064733467,33928120,20.0,125.0
10102,MA010120220812377529,투다리,투다리본오점,,I2,음식,I211,주점,I21104,요리 주점,I56219,기타 주점업,41,경기도,41271,안산시 상록구,41271550,본오2동,4127110400,본오동,4127110400107690003,769.0,3.0,경기도 안산시 상록구 본오동 769-3,412713190003,경기도 안산시 상록구 각골로,경기도 안산시 상록구 각골로 64,1.0,126.872905664863,37.2951824636515,20020095,80.0,130.0
10104,MA010120220805988587,투다리,투다리,,I2,음식,I211,주점,I21104,요리 주점,I56219,기타 주점업,41,경기도,41830,양평군,41830250,양평읍,4183025021,양평읍,4183025021101830004,183.0,4.0,경기도 양평군 양평읍 양근리 183-4,418303217038,경기도 양평군 양평읍 시민로,경기도 양평군 양평읍 시민로 44,,127.496510719142,37.490305883333,38623536,20.0,29.0
10105,MA010120220806872902,투다리,투다리,서정점,I2,음식,I211,주점,I21104,요리 주점,I56219,기타 주점업,41,경기도,41220,평택시,41220510,중앙동,4122010100,서정동,4122010100104330026,433.0,26.0,경기도 평택시 서정동 433-26,412203188104,경기도 평택시 탄현로,경기도 평택시 탄현로 84,,127.053844255394,37.0599819417294,32176314,20.0,47.0
10106,MA010120220812432250,투다리,투다리,삼성점,I2,음식,I211,주점,I21104,요리 주점,I56219,기타 주점업,41,경기도,41117,수원시 영통구,41117530,매탄3동,4111710100,매탄동,4111710100112700003,1270.0,3.0,경기도 수원시 영통구 매탄동 1270-3,411174331081,경기도 수원시 영통구 매탄로79번길,경기도 수원시 영통구 매탄로79번길 6-8,1.0,127.042261586901,37.2585347801809,33874745,20.0,249.0
10107,MA010120220812559038,투다리,투다리,지행점,I2,음식,I211,주점,I21104,요리 주점,I56219,기타 주점업,41,경기도,41250,동두천시,41250566,송내동,4125010200,지행동,4125010200106910005,691.0,5.0,경기도 동두천시 지행동 691-5,412503189031,경기도 동두천시 중앙로,경기도 동두천시 중앙로 125,,127.051739300501,37.8927590209711,1756246083,20.0,23.0
10108,MA0101202307A0055728,투다리,투다리배곧,신도시점,I2,음식,I211,주점,I21104,요리 주점,I56219,기타 주점업,41,경기도,41390,시흥시,41390596,배곧1동,4139013500,배곧동,4139013500101270000,127.0,,경기도 시흥시 배곧동 127,413903350763,경기도 시흥시 배곧4로,경기도 시흥시 배곧4로 32-17,1.0,126.726578443387,37.3771537304971,1803157986,20.0,40.0
10109,MA0101202307A0040260,투다리,투다리해오름점,,I2,음식,I211,주점,I21104,요리 주점,I56219,기타 주점업,41,경기도,41480,파주시,41480590,운정5동,4148010900,다율동,4148010900110440003,1044.0,3.0,경기도 파주시 다율동 1044-3,414804858524,경기도 파주시 해올2길,경기도 파주시 해올2길 16,,126.731635435857,37.73408549062,1751107612,30.0,30.0
10126,MA0101202308A0011237,투다리,투다리시흥,대야점,I2,음식,I211,주점,I21104,요리 주점,I56219,기타 주점업,41,경기도,41390,시흥시,41390510,대야동,4139010100,대야동,4139010100105360000,536.0,,경기도 시흥시 대야동 536,413904397299,경기도 시흥시 비둘기공원5길,경기도 시흥시 비둘기공원5길 7,1.0,126.790807086868,37.4431582245714,1125562022,20.0,77.0
10130,MA0101202310A0050077,투다리,투다리감일역점,,I2,음식,I211,주점,I21104,요리 주점,I56219,기타 주점업,41,경기도,41450,하남시,41450582,감일동,4145011500,감이동,4145011500104430001,443.0,1.0,경기도 하남시 감이동 443-1,414504858514,경기도 하남시 감일백제로180번길,경기도 하남시 감일백제로180번길 20,1.0,127.155573316645,37.5089605533576,1822179552,20.0,25.0
10131,MA0101202310A0043484,투다리,투다리초롱꽃,마을점,I2,음식,I211,주점,I21104,요리 주점,I56219,기타 주점업,41,경기도,41480,파주시,41480600,운정6동,4148011300,동패동,4148011300120800001,2080.0,1.0,경기도 파주시 동패동 2080-1,414803353306,경기도 파주시 초롱꽃로,경기도 파주시 초롱꽃로 139,,126.719657199474,37.712623555394,1106534355,20.0,63.0
10135,MA0101202309A0013420,투다리,투다리,풍동점,I2,음식,I211,주점,I21104,요리 주점,I56219,기타 주점업,41,경기도,41285,고양시 일산동구,41285540,풍산동,4128510700,풍동,4128510700112730006,1273.0,6.0,경기도 고양시 일산동구 풍동 1273-6,412853193019,경기도 고양시 일산동구 숲속마을로,경기도 고양시 일산동구 숲속마을로 50-76,1.0,126.798701765245,37.6677452358184,31291775,70.0,94.01
10140,MA0101202311A0053833,투다리,투다리송북점,,I2,음식,I211,주점,I21104,요리 주점,I56219,기타 주점업,41,경기도,41220,평택시,41220560,송북동,4122011000,지산동,4122011000111270000,1127.0,,경기도 평택시 지산동 1127,412203188089,경기도 평택시 지산로,경기도 평택시 지산로 82,,127.063935219747,37.0801789571063,2220110,30.0,123.0
10141,MA0101202406A0133021,투다리,투다리,교하점,I2,음식,I211,주점,I21104,요리 주점,I56122,일식 음식점업,41,경기도,41480,파주시,41480590,운정5동,4148011300,동패동,4148011300117010000,1701.0,,경기도 파주시 동패동 1701,414803206084,경기도 파주시 책향기로,경기도 파주시 책향기로 423,,126.718930275568,37.7249200636681,1751107612,20.0,63.0
10142,MA0101202406A0176924,투다리,투다리,부천역점,I2,음식,I211,주점,I21104,요리 주점,I56219,기타 주점업,41,경기도,41192,부천시 원미구,41192520,심곡2동,4119210200,심곡동,4119210200101770003,177.0,3.0,경기도 부천시 원미구 심곡동 177-3,411923184003,경기도 부천시 원미구 부천로,경기도 부천시 원미구 부천로 25,,126.782827443658,37.4866896351282,1785050533,20.0,96.0
10153,MA0101202406A0439523,투다리,투다리,금촌점,I2,음식,I211,주점,I21104,요리 주점,I56111,한식 일반 음식점업,41,경기도,41480,파주시,41480520,금촌2동,4148010100,금촌동,4148010100102530005,253.0,5.0,경기도 파주시 금촌동 253-5,414804418851,경기도 파주시 한마음1길,경기도 파주시 한마음1길 38,1.0,126.771179810097,37.7569633413629,33913603,20.0,42.0
10157,MA010120220803347875,투다리,투다리,와우리점,I2,음식,I211,주점,I21104,요리 주점,I56193,치킨 전문점,41,경기도,41590,화성시,41590560,기배동,4159012400,기안동,4159012400103380003,338.0,3.0,경기도 화성시 기안동 338-3,415903012007,경기도 화성시 효행로,경기도 화성시 효행로 241,,126.972404939418,37.2258041247435,1250993956,20.0,14.0
10158,MA010120220806464939,투다리,투다리고등호반점,,I2,음식,I211,주점,I21104,요리 주점,I56211,일반 유흥 주점업,41,경기도,41131,성남시 수정구,41131640,고등동,4113111200,고등동,4113111200105960000,596.0,,경기도 성남시 수정구 고등동 596,411314856972,경기도 성남시 수정구 청계산로3길,경기도 성남시 수정구 청계산로3길 16,1.0,127.095592874435,37.4275819700496,1052385539,40.0,84.0
10160,MA010120220813203835,투다리,투다리,,I2,음식,I211,주점,I21104,요리 주점,I56219,기타 주점업,41,경기도,41570,김포시,41570360,하성면,4157036021,하성면,4157036021106310006,631.0,6.0,경기도 김포시 하성면 마곡리 631-6,415704427379,경기도 김포시 하성면 애기봉로806번길,경기도 김포시 하성면 애기봉로806번길 60,,126.630187755728,37.7192873013021,38563551,20.0,74.0
10161,MA010120220805342350,투다리,투다리본오3점,,I2,음식,I211,주점,I21104,요리 주점,I56219,기타 주점업,41,경기도,41271,안산시 상록구,41271540,본오1동,4127110400,본오동,4127110400109140005,914.0,5.0,경기도 안산시 상록구 본오동 914-5,412713190028,경기도 안산시 상록구 본오로,경기도 안산시 상록구 본오로 49-1,,126.866047290249,37.2895073765354,1790128516,80.0,130.0
10167,MA0101202210A0026485,투다리,투다리,,I2,음식,I211,주점,I21104,요리 주점,I56193,치킨 전문점,41,경기도,41220,평택시,41220630,비전2동,4122012300,소사동,4122012300106780007,678.0,7.0,경기도 평택시 소사동 678-7,412204856857,경기도 평택시 소사5길,경기도 평택시 소사5길 34,1.0,127.127235628294,36.9896057999871,674460774,20.0,50.0
10168,MA0101202210A0003365,투다리,투다리더샵,부평점,I2,음식,I211,주점,I21104,요리 주점,I56111,한식 일반 음식점업,41,경기도,41360,남양주시,41360253,진접읍,4136025325,진접읍,4136025325107710000,771.0,,경기도 남양주시 진접읍 부평리 771,413604391345,경기도 남양주시 진접읍 부평로48번길,경기도 남양주시 진접읍 부평로48번길 140,1.0,127.19795885031,37.737567342658,1144549727,20.0,59.0
10171,MA0101202303A0033476,투다리,투다리,한경대점,I2,음식,I211,주점,I21104,요리 주점,I56219,기타 주점업,41,경기도,41550,안성시,41550530,안성3동,4155012500,당왕동,4155012500105480005,548.0,5.0,경기도 안성시 당왕동 548-5,415504424325,경기도 안성시 비룡3길,경기도 안성시 비룡3길 3,,127.265787752901,37.0136695464089,1531503376,20.0,9.0
10172,MA0101202302A0077374,투다리,투다리지제더샵시티점,,I2,음식,I211,주점,I21104,요리 주점,I56213,생맥주 전문점,41,경기도,41220,평택시,41220640,세교동,4122012100,지제동,4122012100100330000,33.0,,경기도 평택시 지제동 33,412203352858,경기도 평택시 지제동삭1로,경기도 평택시 지제동삭1로 41,1.0,127.075315371661,37.0221791286601,1812680465,20.0,12.0
10181,MA0101202303A0078708,투다리,투다리,자이점,I2,음식,I211,주점,I21104,요리 주점,I56219,기타 주점업,41,경기도,41220,평택시,41220650,동삭동,4122011900,동삭동,4122011900108350000,835.0,,경기도 평택시 동삭동 835,412204854984,경기도 평택시 상서재로5길,경기도 평택시 상서재로5길 15,,127.098144509868,37.0175489199128,1606144209,60.0,60.0
10182,MA0101202305A0033934,투다리,투다리고덕함박산점,,I2,음식,I211,주점,I21104,요리 주점,I56111,한식 일반 음식점업,41,경기도,41220,평택시,41220660,고덕동,4122012800,고덕동,4122012800126660006,2666.0,6.0,경기도 평택시 고덕동 2666-6,412204860296,경기도 평택시 함박산7길,경기도 평택시 함박산7길 31-1,,127.034192268629,37.0378948771027,2220128,30.0,89.01
10183,MA0101202305A0024542,투다리,투다리기흥,구청점,I2,음식,I211,주점,I21104,요리 주점,I56219,기타 주점업,41,경기도,41463,용인시 기흥구,41463520,구갈동,4146310200,구갈동,4146310200103530007,353.0,7.0,경기도 용인시 기흥구 구갈동 353-7,414634412044,경기도 용인시 기흥구 구갈로72번길,경기도 용인시 기흥구 구갈로72번길 10-1,1.0,127.112455747573,37.2803932217207,1704457799,20.0,50.0
10187,MA0101202305A0107111,투다리,투다리,역곡점,I2,음식,I211,주점,I21104,요리 주점,I56219,기타 주점업,41,경기도,41192,부천시 원미구,41192570,역곡1동,4119210700,역곡동,4119210700102010000,201.0,,경기도 부천시 원미구 역곡동 201,411923185016,경기도 부천시 원미구 지봉로,경기도 부천시 원미구 지봉로 130,,126.813429926307,37.4888592898337,33874752,20.0,24.0
10191,MA0101202305A0167850,투다리,투다리,,I2,음식,I211,주점,I21104,요리 주점,I56219,기타 주점업,41,경기도,41610,광주시,41610580,오포1동,4161011800,추자동,4161011800103940001,394.0,1.0,경기도 광주시 추자동 394-1,416103211035,경기도 광주시 오포로,경기도 광주시 오포로 691,1.0,127.218021330432,37.3583653384258,1614173970,20.0,4.0
10205,MA010120220801759233,투다리,투다리,주엽점,I2,음식,I211,주점,I21104,요리 주점,I56219,기타 주점업,41,경기도,41287,고양시 일산서구,41287560,주엽2동,4128710200,주엽동,4128710200101090000,109.0,,경기도 고양시 일산서구 주엽동 109,412873192094,경기도 고양시 일산서구 중앙로,경기도 고양시 일산서구 중앙로 1437,,126.760497580999,37.6700614411181,38623544,20.0,54.0
10209,MA010120220801672773,투다리,투다리송산점,,I2,음식,I211,주점,I21104,요리 주점,I56219,기타 주점업,41,경기도,41150,의정부시,41150573,송산1동,4115010500,용현동,4115010500102680038,268.0,38.0,경기도 의정부시 용현동 268-38,411503181035,경기도 의정부시 용민로,경기도 의정부시 용민로 31,,127.082203662729,37.73556059372,11762873,80.0,396.0
10210,MA010120220811854138,투다리,투다리,,I2,음식,I211,주점,I21104,요리 주점,I56219,기타 주점업,41,경기도,41590,화성시,41590550,반월동,4159012000,반월동,4159012000107170000,717.0,,경기도 화성시 반월동 717,415903177017,경기도 화성시 동탄지성로,경기도 화성시 동탄지성로 320,,127.05111994355,37.2221470622021,415172348,20.0,66.0
10212,MA010120220811869955,투다리,투다리구래호수점,,I2,음식,I211,주점,I21104,요리 주점,I56219,기타 주점업,41,경기도,41570,김포시,41570570,구래동,4157010900,구래동,4157010900168810015,6881.0,15.0,경기도 김포시 구래동 6881-15,415704838103,경기도 김포시 김포한강9로75번길,경기도 김포시 김포한강9로75번길 50,2.0,126.62292718021,37.643456401994,1293097372,210.0,303.03000000000003
10214,MA010120220813737952,투다리,투다리양벌현대점,,I2,음식,I211,주점,I21104,요리 주점,I56219,기타 주점업,41,경기도,41610,광주시,41610590,오포2동,4161012000,양벌동,4161012000105520003,552.0,3.0,경기도 광주시 양벌동 552-3,416104433341,경기도 광주시 양촌길,경기도 광주시 양촌길 151,1.0,127.250978424239,37.3710675201346,1732845704,20.0,11.0
10215,MA010120220808103933,투다리,투다리갈매점,,I2,음식,I211,주점,I21104,요리 주점,I56219,기타 주점업,41,경기도,41310,구리시,41310510,갈매동,4131010100,갈매동,4131010100105310001,531.0,1.0,경기도 구리시 갈매동 531-1,413104853960,경기도 구리시 갈매순환로204번길,경기도 구리시 갈매순환로204번길 16-5,1.0,127.12229342368,37.6374454571188,1460839167,20.0,36.0
10218,MA010120220806426837,투다리,투다리중보로점,,I2,음식,I211,주점,I21104,요리 주점,I56219,기타 주점업,41,경기도,41271,안산시 상록구,41271515,이동,4127110200,이동,4127110200107180003,718.0,3.0,경기도 안산시 상록구 이동 718-3,412713190068,경기도 안산시 상록구 중보로,경기도 안산시 상록구 중보로 27,1.0,126.850180464038,37.3063467436023,37140676,20.0,14532.0
10220,MA010120220814293111,투다리,투다리,영통점,I2,음식,I211,주점,I21104,요리 주점,I56219,기타 주점업,41,경기도,41117,수원시 영통구,41117585,영통3동,4111710500,영통동,4111710500110100012,1010.0,12.0,경기도 수원시 영통구 영통동 1010-12,411174331171,경기도 수원시 영통구 청명남로28번길,경기도 수원시 영통구 청명남로28번길 7,1.0,127.075656309841,37.2520666810235,1527496076,20.0,74.0
10221,MA010120220813162044,투다리,투다리배곧,1호점,I2,음식,I211,주점,I21104,요리 주점,I56219,기타 주점업,41,경기도,41390,시흥시,41390597,배곧2동,4139013500,배곧동,4139013500101980002,198.0,2.0,경기도 시흥시 배곧동 198-2,413904853128,경기도 시흥시 서울대학로278번길,경기도 시흥시 서울대학로278번길 25-32,1.0,126.729474768477,37.3692043593882,1803157986,20.0,40.0
10222,MA010120220802193730,투다리,투다리,,I2,음식,I211,주점,I21104,요리 주점,I56219,기타 주점업,41,경기도,41360,남양주시,41360520,평내동,4136010200,평내동,4136010200106040010,604.0,10.0,경기도 남양주시 평내동 604-10,413603197043,경기도 남양주시 의안로,경기도 남양주시 의안로 121-20,,127.237058207931,37.6428297471412,38623465,30.0,149.01
10229,MA010120220811797921,투다리,투다리카림,2차점,I2,음식,I211,주점,I21104,요리 주점,I56219,기타 주점업,41,경기도,41590,화성시,41590600,동탄6동,4159012900,오산동,4159012900109710000,971.0,,경기도 화성시 오산동 971,415903350554,경기도 화성시 동탄광역환승로,경기도 화성시 동탄광역환승로 63,1.0,127.088943259337,37.2019682142908,1312312726,20.0,56.0
10230,MA010120220814249847,투다리,투다리,,I2,음식,I211,주점,I21104,요리 주점,I56219,기타 주점업,41,경기도,41133,성남시 중원구,41133550,은행1동,4113310400,은행동,4113310400123860000,2386.0,,경기도 성남시 중원구 은행동 2386,411333179020,경기도 성남시 중원구 자혜로,경기도 성남시 중원구 자혜로 83,1.0,127.168654744494,37.4515844232248,38623519,20.0,385.0
10232,MA010120220808150981,투다리,시계탑점투다리,,I2,음식,I211,주점,I21104,요리 주점,I56219,기타 주점업,41,경기도,41192,부천시 원미구,41192700,상3동,4119210900,상동,4119210900105320005,532.0,5.0,경기도 부천시 원미구 상동 532-5,411924352032,경기도 부천시 원미구 길주로77번길,경기도 부천시 원미구 길주로77번길 55-23,1.0,126.751246983216,37.5072063044344,1348993470,50.0,489.0
10233,MA010120220806499589,투다리,투다리,,I2,음식,I211,주점,I21104,요리 주점,I56219,기타 주점업,41,경기도,41450,하남시,41450610,미사1동,4145010900,망월동,4145010900110960000,1096.0,,경기도 하남시 망월동 1096,414504853265,경기도 하남시 미사강변중앙로204번길,경기도 하남시 미사강변중앙로204번길 22,1.0,127.190890654841,37.5648067485631,1849140137,20.0,69.0
10236,MA010120220814339914,투다리,투다리사동,2호점,I2,음식,I211,주점,I21104,요리 주점,I56211,일반 유흥 주점업,41,경기도,41271,안산시 상록구,41271532,사이동,4127110300,사동,4127110300113880003,1388.0,3.0,경기도 안산시 상록구 사동 1388-3,412713190075,경기도 안산시 상록구 항가울로,경기도 안산시 상록구 항가울로 36-1,1.0,126.84753841612,37.2852591162103,1272112020,50.0,195.0
10238,MA010120220802311650,투다리,투투다리,,I2,음식,I211,주점,I21104,요리 주점,I56219,기타 주점업,41,경기도,41273,안산시 단원구,41273545,원곡동,4127310800,원곡동,4127310800107470010,747.0,10.0,경기도 안산시 단원구 원곡동 747-10,412733191059,경기도 안산시 단원구 원본로,경기도 안산시 단원구 원본로 21-1,,126.792427855497,37.33082168066,1989382661,20.0,80.0
10239,MA0101202212A0068940,투다리,투다리,군포점,I2,음식,I211,주점,I21104,요리 주점,I56213,생맥주 전문점,41,경기도,41410,군포시,41410520,군포2동,4141010300,부곡동,4141010300112180003,1218.0,3.0,경기도 군포시 부곡동 1218-3,414104400328,경기도 군포시 삼성로8번길,경기도 군포시 삼성로8번길 4-5,,126.934787271175,37.3366893135957,1235699754,50.0,121.0
10247,MA010120220809749929,투다리,투다리,장현점,I2,음식,I211,주점,I21104,요리 주점,I56219,기타 주점업,41,경기도,41360,남양주시,41360253,진접읍,4136025321,진접읍,4136025321106070002,607.0,2.0,경기도 남양주시 진접읍 장현리 607-2,413604391609,경기도 남양주시 진접읍 장현로47번길,경기도 남양주시 진접읍 장현로47번길 1,,127.178869307952,37.7156772472222,31483468,20.0,59.0
10248,MA010120220813603231,투다리,투다리꼬치구이거모점,,I2,음식,I211,주점,I21104,요리 주점,I56219,기타 주점업,41,경기도,41390,시흥시,41390581,군자동,4139012700,거모동,4139012700117560008,1756.0,8.0,경기도 시흥시 거모동 1756-8,413903199056,경기도 시흥시 한우물로,경기도 시흥시 한우물로 4,,126.785013822065,37.3429633276405,31611177,20.0,22.0
10249,MA010120220813630260,투다리,투다리,,I2,음식,I211,주점,I21104,요리 주점,I56219,기타 주점업,41,경기도,41500,이천시,41500510,창전동,4150010100,창전동,4150010100104620013,462.0,13.0,경기도 이천시 창전동 462-13,415004421495,경기도 이천시 애련정로103번길,경기도 이천시 애련정로103번길 40,,127.448037655676,37.2799591661863,18454990,20.0,152.0
10250,MA010120220802759048,투다리,투다리,,I2,음식,I211,주점,I21104,요리 주점,I56219,기타 주점업,41,경기도,41480,파주시,41480320,탄현면,4148032022,탄현면,4148032022115800010,1580.0,10.0,경기도 파주시 탄현면 법흥리 1580-10,414803206057,경기도 파주시 탄현면 약산로,경기도 파주시 탄현면 약산로 75,,126.704681112286,37.7711858281335,19185337,20.0,90.0
10251,MA010120220802404029,투다리,투다리,,I2,음식,I211,주점,I21104,요리 주점,I56219,기타 주점업,41,경기도,41461,용인시 처인구,41461540,동부동,4146110700,마평동,4146110700107270001,727.0,1.0,경기도 용인시 처인구 마평동 727-1,414613203017,경기도 용인시 처인구 금령로,경기도 용인시 처인구 금령로 135,1.0,127.211379220757,37.2356743817217,19437428,30.0,33.99
10254,MA010120220801795033,투다리,투다리,행신역점,I2,음식,I211,주점,I21104,요리 주점,I56219,기타 주점업,41,경기도,41281,고양시 덕양구,41281650,행신2동,4128112800,행신동,4128112800107630003,763.0,3.0,경기도 고양시 덕양구 행신동 763-3,412814376169,경기도 고양시 덕양구 용현로5번길,경기도 고양시 덕양구 용현로5번길 24,,126.834989624515,37.6135353385027,1719596272,20.0,120.0
10255,MA010120220808377147,투다리,투다리지산점,,I2,음식,I211,주점,I21104,요리 주점,I56219,기타 주점업,41,경기도,41220,평택시,41220550,지산동,4122011000,지산동,4122011000110840000,1084.0,,경기도 평택시 지산동 1084,412203188087,경기도 평택시 지산2로,경기도 평택시 지산2로 86-5,,127.061932807598,37.0794771849397,11763421,30.0,123.0
10262,MA010120220812902776,투다리,투다리,,I2,음식,I211,주점,I21104,요리 주점,I56219,기타 주점업,41,경기도,41115,수원시 팔달구,41115730,인계동,4111514100,인계동,4111514100103760000,376.0,,경기도 수원시 팔달구 인계동 376,411154328097,경기도 수원시 팔달구 권광로276번길,경기도 수원시 팔달구 권광로276번길 23,,127.037229240417,37.2718989213572,11763278,70.0,941.99
10266,MA0101202211A0028951,투다리,투다리,고암점,I2,음식,I211,주점,I21104,요리 주점,I56219,기타 주점업,41,경기도,41630,양주시,41630550,회천3동,4163011500,고암동,4163011500101570001,157.0,1.0,경기도 양주시 고암동 157-1,416304436277,경기도 양주시 엄상동길,경기도 양주시 엄상동길 30-18,1.0,127.067644343132,37.8307295189564,1371901069,20.0,21.0
10269,MA010120220809733514,투다리,투다리,,I2,음식,I211,주점,I21104,요리 주점,I56219,기타 주점업,41,경기도,41590,화성시,41590259,향남읍,4159025939,향남읍,4159025939105050005,505.0,5.0,경기도 화성시 향남읍 행정리 505-5,415904431353,경기도 화성시 향남읍 행정죽전로4길,경기도 화성시 향남읍 행정죽전로4길 7-1,,126.924132064869,37.1256938044658,46311356,20.0,78.0
10271,MA010120220801487089,투다리,투다리,,I2,음식,I211,주점,I21104,요리 주점,I56219,기타 주점업,41,경기도,41550,안성시,41550320,금광면,4155032034,금광면,4155032034101390001,139.0,1.0,경기도 안성시 금광면 신양복리 139-1,415503208043,경기도 안성시 금광면 종합운동장로,경기도 안성시 금광면 종합운동장로 132,,127.329701344361,37.011220468974,75885473,20.0,6.0
10272,MA010120220808556223,투다리,투다리,,I2,음식,I211,주점,I21104,요리 주점,I56219,기타 주점업,41,경기도,41650,포천시,41650250,소흘읍,4165025021,소흘읍,4165025021107260014,726.0,14.0,경기도 포천시 소흘읍 송우리 726-14,416503213063,경기도 포천시 소흘읍 태봉로,경기도 포천시 소흘읍 태봉로 164,,127.141458739971,37.8317811792214,1403864262,20.0,31.0
10275,MA010120220801510093,투다리,투다리,일죽점,I2,음식,I211,주점,I21104,요리 주점,I56219,기타 주점업,41,경기도,41550,안성시,41550390,일죽면,4155039028,일죽면,4155039028100190013,19.0,13.0,경기도 안성시 일죽면 송천리 19-13,415504424416,경기도 안성시 일죽면 송천길,경기도 안성시 일죽면 송천길 78,,127.476941917568,37.0925909532615,20017238,20.0,11.0
10276,MA010120220801427245,투다리,투다리,,I2,음식,I211,주점,I21104,요리 주점,I56219,기타 주점업,41,경기도,41113,수원시 권선구,41113680,권선2동,4111313700,권선동,4111313700111850001,1185.0,1.0,경기도 수원시 권선구 권선동 1185-1,411134325019,경기도 수원시 권선구 경수대로302번길,경기도 수원시 권선구 경수대로302번길 29,,127.023051255739,37.2534672044276,1282028808,60.0,169.02
10277,MA010120220801405721,투다리,투다리,,I2,음식,I211,주점,I21104,요리 주점,I56219,기타 주점업,41,경기도,41115,수원시 팔달구,41115690,화서2동,4111513800,화서동,4111513800106440007,644.0,7.0,경기도 수원시 팔달구 화서동 644-7,411154328112,경기도 수원시 팔달구 덕영대로697번길,경기도 수원시 팔달구 덕영대로697번길 7,2.0,126.990561411658,37.2848613537295,36986599,20.0,124.0
10279,MA010120220801428882,투다리,투다리,,I2,음식,I211,주점,I21104,요리 주점,I56219,기타 주점업,41,경기도,41111,수원시 장안구,41111573,정자3동,4111113300,천천동,4111113300105060012,506.0,12.0,경기도 수원시 장안구 천천동 506-12,411114322304,경기도 수원시 장안구 정자로20번길,경기도 수원시 장안구 정자로20번길 17,1.0,126.979698039096,37.2994568023672,38623524,20.0,250.0
10288,MA010120220801469096,투다리,투다리송탄3점,,I2,음식,I211,주점,I21104,요리 주점,I56219,기타 주점업,41,경기도,41220,평택시,41220520,서정동,4122010100,서정동,4122010100105520032,552.0,32.0,경기도 평택시 서정동 552-32,412203188050,경기도 평택시 신서로,경기도 평택시 신서로 94,,127.054280361104,37.0724165394743,33869093,20.0,47.0
10290,MA010120220810334084,투다리,투다리중동현대점,,I2,음식,I211,주점,I21104,요리 주점,I56219,기타 주점업,41,경기도,41192,부천시 원미구,41192630,중1동,4119210800,중동,4119210800111660008,1166.0,8.0,경기도 부천시 원미구 중동 1166-8,411924352260,경기도 부천시 원미구 석천로177번길,경기도 부천시 원미구 석천로177번길 42,,126.760622868594,37.503702753986,1992735556,30.0,1410.99
10291,MA010120220806774094,투다리,투다리,힐스테이트점,I2,음식,I211,주점,I21104,요리 주점,I56211,일반 유흥 주점업,41,경기도,41220,평택시,41220640,세교동,4122012000,세교동,4122012000105730000,573.0,,경기도 평택시 세교동 573,412203351559,경기도 평택시 세교6로,경기도 평택시 세교6로 46,,127.087361566587,37.011781425306,1812680465,30.0,32.01
10293,MA010120220809314896,투다리,투다리,,I2,음식,I211,주점,I21104,요리 주점,I56219,기타 주점업,41,경기도,41171,안양시 만안구,41171560,안양6동,4117110100,안양동,4117110100104270022,427.0,22.0,경기도 안양시 만안구 안양동 427-22,411713182014,경기도 안양시 만안구 소곡로,경기도 안양시 만안구 소곡로 14,,126.930132226913,37.3917123567367,1072392881,20.0,65.0
10294,MA010120220801397922,투다리,투다리,봉담점,I2,음식,I211,주점,I21104,요리 주점,I56219,기타 주점업,41,경기도,41590,화성시,41590253,봉담읍,4159025324,봉담읍,4159025324105990002,599.0,2.0,경기도 화성시 봉담읍 동화리 599-2,415904430329,경기도 화성시 봉담읍 동화길,경기도 화성시 봉담읍 동화길 85,,126.958381296901,37.2169246983059,32095088,20.0,58.0
10297,MA010120220807207019,투다리,투다리점촌분점,,I2,음식,I211,주점,I21104,요리 주점,I56219,기타 주점업,41,경기도,41220,평택시,41220520,서정동,4122010100,서정동,4122010100108860005,886.0,5.0,경기도 평택시 서정동 886-5,412203188079,경기도 평택시 점촌로,경기도 평택시 점촌로 29,,127.057309778472,37.0634134058334,33920115,20.0,47.0
10299,MA010120220801372410,투다리,투다리,,I2,음식,I211,주점,I21104,요리 주점,I56219,기타 주점업,41,경기도,41590,화성시,41590570,화산동,4159012500,송산동,4159012500101730002,173.0,2.0,경기도 화성시 송산동 173-2,415903210127,경기도 화성시 화산중앙로,경기도 화성시 화산중앙로 67,,127.011152821519,37.2095789176909,32088576,20.0,18.0
10300,MA010120220802798086,투다리,투다리,용인점,I2,음식,I211,주점,I21104,요리 주점,I56219,기타 주점업,41,경기도,41461,용인시 처인구,41461510,중앙동,4146110100,김량장동,4146110100101220003,122.0,3.0,경기도 용인시 처인구 김량장동 122-3,414614409110,경기도 용인시 처인구 금령로107번길,경기도 용인시 처인구 금령로107번길 10,,127.208293420491,37.2364006852164,30936104,20.0,41.0
10303,MA010120220813064182,투다리,투다리,,I2,음식,I211,주점,I21104,요리 주점,L68112,비주거용 건물 임대업,41,경기도,41650,포천시,41650250,소흘읍,4165025021,소흘읍,4165025021107250007,725.0,7.0,경기도 포천시 소흘읍 송우리 725-7,416503213063,경기도 포천시 소흘읍 태봉로,경기도 포천시 소흘읍 태봉로 239,,127.149310628909,37.8330418327796,1403864262,20.0,31.0
10305,MA010120220805043762,투다리,투다리파장점,,I2,음식,I211,주점,I21104,요리 주점,I56219,기타 주점업,41,경기도,41111,수원시 장안구,41111560,파장동,4111112900,파장동,4111112900105720039,572.0,39.0,경기도 수원시 장안구 파장동 572-39,411114322383,경기도 수원시 장안구 파장로82번길,경기도 수원시 장안구 파장로82번길 3,,126.991844583952,37.3068197283607,2111129,50.0,138.0
10306,MA010120220806783096,투다리,투다리이글점,,I2,음식,I211,주점,I21104,요리 주점,I56219,기타 주점업,41,경기도,41192,부천시 원미구,41192670,상동,4119210900,상동,4119210900102360045,236.0,45.0,경기도 부천시 원미구 상동 236-45,411923184014,경기도 부천시 원미구 장말로,경기도 부천시 원미구 장말로 208,1.0,126.764955300713,37.4925930592565,74468794,50.0,489.0
10307,MA010120220802045593,투다리,투다리장말점,,I2,음식,I211,주점,I21104,요리 주점,I56219,기타 주점업,41,경기도,41192,부천시 원미구,41192530,심곡3동,4119210200,심곡동,4119210200103250034,325.0,34.0,경기도 부천시 원미구 심곡동 325-34,411924352456,경기도 부천시 원미구 장말로294번길,경기도 부천시 원미구 장말로294번길 19-2,1.0,126.77444903674,37.4904401424818,37314636,20.0,96.0
10309,MA010120220802272784,투다리,투다리,태안점,I2,음식,I211,주점,I21104,요리 주점,I56219,기타 주점업,41,경기도,41590,화성시,41590530,병점1동,4159011700,병점동,4159011700103170003,317.0,3.0,경기도 화성시 병점동 317-3,415903210047,경기도 화성시 병점2로,경기도 화성시 병점2로 30,,127.040283485412,37.2060855270033,1055560381,20.0,36.0
10310,MA010120220809776850,투다리,투다리고덕여염점,,I2,음식,I211,주점,I21104,요리 주점,I56219,기타 주점업,41,경기도,41220,평택시,41220660,고덕동,4122012800,고덕동,4122012800120910004,2091.0,4.0,경기도 평택시 고덕동 2091-4,412204856237,경기도 평택시 고덕여염12길,경기도 평택시 고덕여염12길 36,,127.0529216831,37.0428979850877,1566364120,30.0,89.01
10314,MA010120220800453356,투다리,투다리,,I2,음식,I211,주점,I21104,요리 주점,I56219,기타 주점업,41,경기도,41287,고양시 일산서구,41287570,대화동,4128710400,대화동,4128710400121420001,2142.0,1.0,경기도 고양시 일산서구 대화동 2142-1,412873194026,경기도 고양시 일산서구 대산로,경기도 고양시 일산서구 대산로 219,,126.754190683419,37.6783915161741,1817968402,30.0,132.99
10315,MA010120220801932638,투다리,투다리,,I2,음식,I211,주점,I21104,요리 주점,I56219,기타 주점업,41,경기도,41133,성남시 중원구,41133580,상대원2동,4113310500,상대원동,4113310500129990004,2999.0,4.0,경기도 성남시 중원구 상대원동 2999-4,411333179006,경기도 성남시 중원구 금상로,경기도 성남시 중원구 금상로 11,1.0,127.15895045484,37.4373708668518,32284587,20.0,46.0
10317,MA010120220801794829,투다리,투다리,,I2,음식,I211,주점,I21104,요리 주점,I56219,기타 주점업,41,경기도,41287,고양시 일산서구,41287570,대화동,4128710400,대화동,4128710400120270010,2027.0,10.0,경기도 고양시 일산서구 대화동 2027-10,412874382114,경기도 고양시 일산서구 일산로636번길,경기도 고양시 일산서구 일산로636번길 9,,126.758769025697,37.6823202171561,1817968402,30.0,132.99
10318,MA010120220802805138,투다리,투다리,,I2,음식,I211,주점,I21104,요리 주점,I56219,기타 주점업,41,경기도,41463,용인시 기흥구,41463550,서농동,4146311000,서천동,4146311000103660000,366.0,,경기도 용인시 기흥구 서천동 366,414634412203,경기도 용인시 기흥구 예현로35번길,경기도 용인시 기흥구 예현로35번길 2,,127.066642967402,37.243917644724,32193711,20.0,28.0
10319,MA010120220811733103,투다리,투다리고덕풍경채점,,I2,음식,I211,주점,I21104,요리 주점,I56219,기타 주점업,41,경기도,41220,평택시,41220660,고덕동,4122012800,고덕동,4122012800118990002,1899.0,2.0,경기도 평택시 고덕동 1899-2,412202348217,경기도 평택시 고덕국제대로,경기도 평택시 고덕국제대로 179,,127.041417143994,37.0540128129874,1853019392,30.0,89.01
10322,MA010120220808617951,투다리,투다리,,I2,음식,I211,주점,I21104,요리 주점,I56111,한식 일반 음식점업,41,경기도,41360,남양주시,41360253,진접읍,4136025328,진접읍,4136025328110570000,1057.0,,경기도 남양주시 진접읍 금곡리 1057,413604391778,경기도 남양주시 진접읍 해밀예당1로236번길,경기도 남양주시 진접읍 해밀예당1로236번길 10-10,,127.204070882462,37.7199699921559,31483468,20.0,59.0
10326,MA010120220813361149,투다리,투다리,능곡점,I2,음식,I211,주점,I21104,요리 주점,I56219,기타 주점업,41,경기도,41281,고양시 덕양구,41281630,행주동,4128112000,토당동,4128112000108450000,845.0,,경기도 고양시 덕양구 토당동 845,412813192061,경기도 고양시 덕양구 지도로,경기도 고양시 덕양구 지도로 100,,126.824052990731,37.6260883037614,33920096,20.0,16.0
10331,MA010120220800332189,투다리,투다리,,I2,음식,I211,주점,I21104,요리 주점,I56219,기타 주점업,41,경기도,41590,화성시,41590256,우정읍,4159025632,우정읍,4159025632103270010,327.0,10.0,경기도 화성시 우정읍 조암리 327-10,415903210002,경기도 화성시 우정읍 31만세로,경기도 화성시 우정읍 31만세로 1,,126.8144787565,37.0811413877555,1110769125,20.0,19.0
10332,MA010120220811498576,투다리,투다리,용문점,I2,음식,I211,주점,I21104,요리 주점,I56219,기타 주점업,41,경기도,41830,양평군,41830400,용문면,4183040024,용문면,4183040024103220006,322.0,6.0,경기도 양평군 용문면 다문리 322-6,418303217042,경기도 양평군 용문면 용문로,경기도 양평군 용문면 용문로 372-1,,127.59481105835,37.4852838109884,18922911,20.0,24.0
10333,MA010120220808488229,투다리,투다리,,I2,음식,I211,주점,I21104,요리 주점,I56219,기타 주점업,41,경기도,41150,의정부시,41150595,가능동,4115011000,가능동,4115011000106710001,671.0,1.0,경기도 의정부시 가능동 671-1,411503181061,경기도 의정부시 신촌로,경기도 의정부시 신촌로 2,1.0,127.034778240639,37.749981609063,11762992,30.0,66.99000000000001
10338,MA010120220806541677,투다리,투다리정왕1점,,I2,음식,I211,주점,I21104,요리 주점,I56219,기타 주점업,41,경기도,41390,시흥시,41390591,정왕1동,4139013200,정왕동,4139013200116100005,1610.0,5.0,경기도 시흥시 정왕동 1610-5,413904397536,경기도 시흥시 정왕대로233번길,경기도 시흥시 정왕대로233번길 12,,126.740335970113,37.3460002675137,37313789,30.0,119.01
10342,MA010120220806396952,투다리,투다리,,I2,음식,I211,주점,I21104,요리 주점,I56219,기타 주점업,41,경기도,41360,남양주시,41360570,별내동,4136011100,별내동,4136011100110800007,1080.0,7.0,경기도 남양주시 별내동 1080-7,413603197093,경기도 남양주시 별내5로,경기도 남양주시 별내5로 27,1.0,127.115392318089,37.6512644865615,38506418,20.0,82.0
10343,MA010120220802008055,투다리,투다리무궁화점,,I2,음식,I211,주점,I21104,요리 주점,I56219,기타 주점업,41,경기도,41196,부천시 오정구,41196530,원종2동,4119610400,원종동,4119610400101410004,141.0,4.0,경기도 부천시 오정구 원종동 141-4,411964358189,경기도 부천시 오정구 성오로117번길,경기도 부천시 오정구 성오로117번길 14,1.0,126.798997653801,37.5241729817756,11762578,30.0,77.01
10344,MA010120220804798934,투다리,투다리,구래점,I2,음식,I211,주점,I21104,요리 주점,I56219,기타 주점업,41,경기도,41570,김포시,41570570,구래동,4157010900,구래동,4157010900168860004,6886.0,4.0,경기도 김포시 구래동 6886-4,415703352049,경기도 김포시 솔터로,경기도 김포시 솔터로 22,,126.631087200941,37.6453472276826,1293097372,210.0,303.03000000000003
10346,MA010120220803513576,투다리,투다리,,I2,음식,I211,주점,I21104,요리 주점,I56219,기타 주점업,41,경기도,41610,광주시,41610560,광남1동,4161010700,삼동,4161010700102620004,262.0,4.0,경기도 광주시 삼동 262-4,416103211033,경기도 광주시 순암로,경기도 광주시 순암로 491,1.0,127.200946592504,37.4104476363941,1730091393,40.0,158.0
10347,MA010120220802356329,투다리,투다리,,I2,음식,I211,주점,I21104,요리 주점,I56219,기타 주점업,41,경기도,41273,안산시 단원구,41273580,선부1동,4127310900,선부동,4127310900110770003,1077.0,3.0,경기도 안산시 단원구 선부동 1077-3,412733191034,경기도 안산시 단원구 선부광장1로,경기도 안산시 단원구 선부광장1로 108,,126.812574236265,37.3332430398738,33913458,50.0,94.0
10348,MA010120220802360558,투다리,투다리,부곡점,I2,음식,I211,주점,I21104,요리 주점,I56219,기타 주점업,41,경기도,41271,안산시 상록구,41271570,부곡동,4127110700,부곡동,4127110700106860001,686.0,1.0,경기도 안산시 상록구 부곡동 686-1,412714370250,경기도 안산시 상록구 성호로13길,경기도 안산시 상록구 성호로13길 6,,126.85841201775,37.3258642528486,21778557,50.0,121.0
